,지점명,지점번호,월,0시,1시,2시,3시,4시,5시,6시,7시,8시,9시,10시,11시,12시,13시,14시,15시,16시,17시,18시,19시,20시,21시,22시,23시,위도,경도,주소,하루평균
9,가양대교,C-03,10,1042.0,730.0,555.0,538.0,798.0,1704.0,2566.0,2678.0,2929.0,3039.0,3021.0,2920.0,2929.0,2996.0,3051.0,3191.0,3293.0,3196.0,2837.0,2791.0,2641.0,2554.0,2364.0,1531.0,37.571567,126.862726,서울시 마포구 상암동 506-68,2328.9166666666665
21,강남대로(강남역-신분당),D-35,10,494.0,310.0,201.0,157.0,163.0,297.0,675.0,1105.0,1280.0,1316.0,1333.0,1445.0,1443.0,1515.0,1513.0,1539.0,1580.0,1605.0,1592.0,1408.0,1181.0,1068.0,977.0,683.0,37.49059,127.03116,서울시 강남구 역삼동 858,1036.6666666666667
33,강남대로(신사역),D-43,10,727.0,533.0,379.0,298.0,299.0,466.0,863.0,1320.0,1444.0,1571.0,1592.0,1578.0,1614.0,1541.0,1657.0,1690.0,1723.0,1815.0,1886.0,1763.0,1602.0,1559.0,1443.0,1008.0,37.514859,127.020098,서울시 강남구 논현동 17-5,1265.4583333333333
45,강남순환로,F-08,10,463.0,277.0,188.0,170.0,265.0,836.0,1914.0,2511.0,2631.0,2561.0,2457.0,2382.0,2375.0,2492.0,2503.0,2562.0,2835.0,2995.0,2700.0,2372.0,1872.0,1644.0,1406.0,835.0,37.449096,126.926169,서울시 금천구 시흥동 산 93-1,1801.9166666666667
57,강변북로,F-02,10,2494.0,1624.0,1195.0,1111.0,1675.0,3766.0,5546.0,5857.0,6102.0,6293.0,6218.0,6175.0,6141.0,6150.0,6103.0,5979.0,5827.0,5070.0,4547.0,4810.0,5705.0,5983.0,5560.0,3787.0,37.517004,126.973968,서울시 용산구 이촌동 302-131,4738.25
69,강변북로(구리시계),B-37,10,832.0,531.0,399.0,368.0,599.0,1646.0,3116.0,3406.0,3795.0,3893.0,3998.0,4006.0,3904.0,3973.0,4008.0,4217.0,4358.0,4305.0,4096.0,3660.0,3137.0,2736.0,2351.0,1483.0,37.558389,127.114274,경기도 구리시 아천동 390,2867.375
81,강변북로(난지한강공원),B-36,10,2128.0,1406.0,1107.0,1118.0,1790.0,4178.0,5395.0,5244.0,5646.0,5890.0,6127.0,6186.0,6474.0,6496.0,6464.0,6508.0,6377.0,5999.0,5968.0,5969.0,5904.0,5764.0,5038.0,3359.0,37.570903,126.872321,서울시 마포구 상암동 481-226,4855.625
93,강서로(화곡터널),D-20,10,421.0,298.0,217.0,178.0,229.0,429.0,674.0,884.0,948.0,1026.0,981.0,985.0,968.0,990.0,987.0,990.0,981.0,991.0,973.0,926.0,876.0,848.0,786.0,563.0,37.534375,126.845094,서울시 강서구 화곡동 산172-2,756.2083333333334
105,개봉로(개봉교),B-21,10,193.0,124.0,89.0,85.0,154.0,361.0,499.0,572.0,601.0,630.0,630.0,637.0,613.0,632.0,634.0,671.0,688.0,696.0,678.0,584.0,499.0,460.0,389.0,284.0,37.486181,126.8565,서울시 구로구 개봉동 403-97,475.125
117,경부고속도로,F-06,10,2201.0,1476.0,1112.0,1061.0,1659.0,3728.0,5316.0,4902.0,4966.0,4940.0,4809.0,4736.0,4766.0,4755.0,4716.0,4804.0,4733.0,4380.0,4312.0,4545.0,4587.0,5471.0,5039.0,3508.0,37.493135,127.022533,서울시 서초구 서초동 1748-26 ,4021.75
129,경부고속도로(양재IC),B-11,10,1826.0,1204.0,869.0,833.0,1350.0,3275.0,5347.0,4860.0,4900.0,4931.0,4754.0,4494.0,4483.0,4477.0,4469.0,4640.0,4809.0,4716.0,4550.0,4634.0,4608.0,5091.0,4579.0,3054.0,37.465083,127.038643,서울시 서초구 양재동 227-4,3864.7083333333335
141,경인고속국도(신월IC),B-28,10,1800.0,1209.0,916.0,814.0,1061.0,2794.0,4028.0,4759.0,4642.0,4581.0,4552.0,4730.0,4761.0,4874.0,4903.0,5026.0,5180.0,5206.0,4939.0,4500.0,4346.0,4168.0,3981.0,2768.0,37.524875,126.831933,서울시 양천구 신월동 904-1,3772.4166666666665
153,경인로(거리공원입구교차로),D-23,10,353.0,220.0,150.0,143.0,238.0,571.0,836.0,1039.0,1144.0,1162.0,1158.0,1169.0,1175.0,1181.0,1185.0,1197.0,1224.0,1254.0,1216.0,1158.0,1051.0,1009.0,837.0,577.0,37.50644,126.884382,서울시 구로구 신도림동 435-17,885.2916666666666
165,경인로(서울교),D-28,10,630.0,418.0,284.0,237.0,333.0,741.0,1444.0,2285.0,2478.0,2477.0,2458.0,2486.0,2389.0,2502.0,2520.0,2482.0,2596.0,2712.0,2588.0,2247.0,1971.0,1786.0,1515.0,957.0,37.52019,126.914903,서울시 영등포구 영등포동2가 97-1,1772.3333333333333
177,경인로(오류IC),D-22,10,,,,,,,,,,,,,,,,,,,,,,,,,37.498246,126.851219,서울시 구로구 개봉동 80-22,
189,경인로(유한공고),B-29,10,295.0,193.0,128.0,107.0,208.0,434.0,603.0,802.0,864.0,834.0,798.0,797.0,797.0,796.0,811.0,828.0,897.0,946.0,932.0,806.0,690.0,637.0,585.0,402.0,37.488614,126.822789,경기도 부천시 소사구 괴안동 206-5,632.9166666666666
201,경춘북로(중랑경찰서),B-05,10,254.0,170.0,125.0,115.0,217.0,511.0,922.0,1300.0,1426.0,1345.0,1258.0,1235.0,1251.0,1324.0,1315.0,1356.0,1520.0,1622.0,1569.0,1284.0,969.0,834.0,704.0,416.0,37.619942,127.105325,서울시 중랑구 신내동 271-1,960.0833333333334
213,공항대로(발산역),D-21,10,372.0,249.0,189.0,169.0,283.0,508.0,760.0,1192.0,1387.0,1393.0,1414.0,1429.0,1450.0,1464.0,1515.0,1483.0,1501.0,1498.0,1468.0,1256.0,1053.0,928.0,809.0,532.0,37.559251,126.831069,서울시 강서구 마곡동 727-1154,1012.5833333333334
225,과천대로(남태령역),B-15,10,461.0,260.0,165.0,153.0,252.0,705.0,1442.0,1755.0,1783.0,1813.0,1778.0,1763.0,1732.0,1767.0,1710.0,1724.0,1807.0,1786.0,1697.0,1520.0,1464.0,1364.0,1150.0,749.0,37.463288,126.988151,서울시 서초구 방배동 산190-1 ,1283.3333333333333
237,광명대교(광명시계),B-22,10,153.0,97.0,67.0,68.0,132.0,312.0,457.0,720.0,695.0,758.0,756.0,707.0,670.0,681.0,684.0,709.0,733.0,766.0,758.0,629.0,494.0,432.0,368.0,230.0,37.485044,126.873297,서울시 금천구 가산동 535-121,503.1666666666667
249,광진교,C-21,10,87.0,60.0,45.0,41.0,53.0,124.0,216.0,396.0,558.0,500.0,488.0,439.0,404.0,422.0,457.0,486.0,536.0,636.0,725.0,466.0,304.0,256.0,204.0,126.0,37.54412,127.115274,서울시 강동구 천호동 484-9,334.5416666666667
261,국회대로(여의2교),D-27,10,450.0,279.0,175.0,143.0,193.0,344.0,690.0,1181.0,1428.0,1342.0,1326.0,1411.0,1363.0,1459.0,1497.0,1504.0,1557.0,1519.0,1429.0,1261.0,1173.0,1102.0,969.0,666.0,37.526003,126.910953,서울시 영등포구 영등포동7가 94-411,1019.2083333333334
273,금오로(광명시계),B-19,10,42.0,22.0,17.0,18.0,42.0,118.0,203.0,292.0,309.0,304.0,267.0,261.0,256.0,272.0,275.0,298.0,338.0,364.0,330.0,254.0,176.0,133.0,104.0,64.0,37.482431,126.841891,서울시 구로구 천왕동 24-2,198.29166666666666
285,금천교(광명시계),B-24,10,353.0,235.0,170.0,162.0,247.0,620.0,994.0,1428.0,1490.0,1513.0,1525.0,1489.0,1425.0,1539.0,1552.0,1576.0,1618.0,1641.0,1502.0,1318.0,1066.0,942.0,809.0,531.0,37.465046,126.884245,서울시 금천구 독산동 668-54,1072.7083333333333
297,금하로(광명시계),B-25,10,187.0,106.0,77.0,73.0,133.0,309.0,616.0,913.0,944.0,992.0,998.0,962.0,949.0,996.0,1009.0,1061.0,1097.0,1169.0,1125.0,927.0,704.0,598.0,458.0,272.0,37.4514,126.891627,경기도 광명시 소하동 31-25,694.7916666666666
309,김포대로(개화교),B-31,10,267.0,158.0,120.0,125.0,250.0,607.0,1128.0,1446.0,1425.0,1430.0,1359.0,1323.0,1316.0,1359.0,1382.0,1435.0,1566.0,1788.0,1664.0,1263.0,1000.0,868.0,759.0,474.0,37.585313,126.795571,경기도 김포시 고촌읍 전호리 436-3,1021.3333333333334
321,남부순환로(낙성대역),D-33,10,1106.0,743.0,528.0,427.0,540.0,1017.0,1526.0,2152.0,2314.0,2377.0,2340.0,2297.0,2284.0,2346.0,2361.0,2410.0,2476.0,2424.0,2266.0,2182.0,2071.0,2029.0,1916.0,1428.0,37.477711,126.962242,서울시 관악구 봉천동 1685-32,1815.0
333,남부순환로(수서IC),D-39,10,862.0,667.0,507.0,505.0,675.0,1091.0,1623.0,2346.0,2562.0,2603.0,2595.0,2516.0,2513.0,2607.0,2570.0,2601.0,2610.0,2580.0,2460.0,2226.0,2042.0,2090.0,1911.0,1211.0,37.495912,127.090903,서울시 강남구 일원동 3-16,1915.5416666666667
345,남부순환로(신월IC),D-19,10,780.0,542.0,429.0,412.0,741.0,1856.0,2612.0,2829.0,2953.0,3076.0,3064.0,3019.0,2984.0,3038.0,3063.0,3039.0,3059.0,3073.0,2940.0,2642.0,2458.0,2241.0,2017.0,1254.0,37.524081,126.835862,서울시 양천구 신월동 838 ,2255.0416666666665
357,남부순환로(예술의전당),D-34,10,670.0,438.0,302.0,241.0,362.0,802.0,1372.0,1989.0,2146.0,2227.0,2117.0,1997.0,1970.0,2128.0,2136.0,2191.0,2300.0,2353.0,2232.0,1944.0,1667.0,1735.0,1559.0,984.0,37.476405,127.00445,서울시 서초구 방배동 1009-3,1577.5833333333333
369,남부순환로(화곡로입구 교차로),D-18,10,491.0,345.0,265.0,260.0,509.0,1040.0,1600.0,1819.0,2016.0,2022.0,2011.0,2004.0,1966.0,2001.0,2014.0,1991.0,1984.0,1950.0,1860.0,1747.0,1537.0,1380.0,1247.0,792.0,37.540163,126.825453,서울시 양천구 신월동 29-7,1452.125
381,남산1호터널,A-20,10,591.0,378.0,259.0,220.0,285.0,640.0,1484.0,1625.0,1816.0,1882.0,1819.0,1895.0,1844.0,1917.0,1825.0,1743.0,1647.0,1657.0,1612.0,1490.0,1444.0,1699.0,1415.0,932.0,37.542406,127.001356,서울시 용산구 한남동 산 10-33,1338.2916666666667
393,남산2호터널,A-21,10,104.0,75.0,65.0,51.0,67.0,117.0,222.0,453.0,555.0,525.0,531.0,562.0,559.0,577.0,593.0,613.0,630.0,640.0,590.0,437.0,351.0,316.0,253.0,149.0,37.544301,126.989767,서울시 용산구 이태원동 262-35,376.4583333333333
405,남산3호터널,A-22,10,206.0,139.0,104.0,82.0,87.0,198.0,514.0,711.0,912.0,911.0,910.0,935.0,913.0,1012.0,1014.0,1023.0,983.0,992.0,916.0,733.0,601.0,685.0,567.0,331.0,37.544496,126.98835,서울시 용산구 용산동2가 5-432,644.9583333333334
417,내부순환로,F-03,10,1145.0,828.0,621.0,586.0,958.0,2438.0,3490.0,3525.0,3543.0,3649.0,3660.0,3599.0,3593.0,3556.0,3670.0,3751.0,3750.0,3574.0,3539.0,3438.0,3333.0,3279.0,2991.0,1764.0,37.608679,126.998878,서울시 성북구 정릉동 590-16,2845.0
429,노들로,D-41,10,442.0,288.0,216.0,188.0,266.0,494.0,935.0,1306.0,1590.0,1466.0,1427.0,1458.0,1396.0,1458.0,1530.0,1589.0,1687.0,1620.0,1621.0,1455.0,1270.0,1204.0,1162.0,709.0,37.529712,126.909281,서울시 영등포구 당산동 364 ,1115.7083333333333
441,대사관로(삼청터널),A-04,10,36.0,18.0,11.0,10.0,17.0,50.0,166.0,350.0,342.0,364.0,329.0,322.0,308.0,321.0,332.0,365.0,427.0,433.0,367.0,289.0,233.0,188.0,136.0,68.0,37.596359,126.984209,서울시 성북구 성북동 산25-148,228.41666666666666
453,대학로(한국방송통신대학교),A-07,10,310.0,207.0,167.0,127.0,152.0,270.0,491.0,729.0,826.0,842.0,873.0,926.0,952.0,1000.0,998.0,989.0,955.0,937.0,853.0,787.0,738.0,709.0,623.0,450.0,37.578188,127.002053,서울시 종로구 연건동 72-3,662.9583333333334
465,도봉로(도봉산역),B-01,10,324.0,234.0,174.0,177.0,267.0,515.0,869.0,1462.0,1675.0,1437.0,1336.0,1294.0,1295.0,1349.0,1360.0,1401.0,1524.0,1703.0,1674.0,1358.0,930.0,823.0,706.0,471.0,37.691792,127.045087,서울시 도봉구 도봉동 378-1,1014.9166666666666
477,도봉로(쌍문역),D-11,10,415.0,300.0,228.0,205.0,271.0,480.0,738.0,988.0,1176.0,1145.0,1162.0,1124.0,1089.0,1114.0,1145.0,1158.0,1199.0,1184.0,1179.0,1036.0,930.0,831.0,794.0,568.0,37.645707,127.033171,서울시 도봉구 창동 650-46,852.4583333333334
489,동부간선도로,F-05,10,1700.0,1120.0,810.0,743.0,1115.0,2525.0,3279.0,3203.0,3281.0,3370.0,3382.0,3576.0,3761.0,3730.0,3742.0,3737.0,3694.0,3347.0,3118.0,3214.0,3416.0,3548.0,3389.0,2568.0,37.568685,127.076023,서울시 동대문구 장안동 19-7,2890.3333333333335
501,동부간선도로(월계1교),D-12,10,1406.0,986.0,756.0,727.0,1144.0,2581.0,2883.0,3021.0,3128.0,3271.0,3223.0,3281.0,3430.0,3433.0,3405.0,3463.0,3544.0,3419.0,3265.0,3243.0,3143.0,3092.0,2889.0,2152.0,37.631579,127.063432,서울시 노원구 월계동 247-17,2703.5416666666665
513,동소문로(길음교사거리),D-09,10,627.0,423.0,318.0,265.0,382.0,608.0,943.0,1226.0,1388.0,1420.0,1453.0,1510.0,1477.0,1486.0,1478.0,1488.0,1441.0,1410.0,1320.0,1247.0,1261.0,1259.0,1179.0,858.0,37.599755,127.021693,서울시 성북구 돈암동 32-31,1102.7916666666667
525,동일로(군자교),D-07,10,688.0,487.0,358.0,280.0,345.0,657.0,1082.0,1193.0,1354.0,1453.0,1596.0,1680.0,1700.0,1718.0,1752.0,1789.0,1892.0,1964.0,1893.0,1680.0,1544.0,1465.0,1274.0,961.0,37.553809,127.070504,서울시 성동구 송정동 83,1283.5416666666667
537,동일로(노원역),D-13,10,257.0,158.0,118.0,98.0,128.0,230.0,483.0,809.0,960.0,1002.0,1062.0,1080.0,1048.0,1083.0,1126.0,1145.0,1135.0,1123.0,1070.0,897.0,733.0,652.0,569.0,373.0,37.652409,127.061032,서울시 노원구 상계동 729,722.4583333333334
549,동일로(의정부IC),B-02,10,450.0,322.0,240.0,230.0,370.0,930.0,1691.0,2654.0,2854.0,2574.0,2531.0,2498.0,2453.0,2496.0,2571.0,2664.0,2889.0,2926.0,2648.0,2293.0,1827.0,1519.0,1251.0,740.0,37.688571,127.055376,서울시 노원구 상계동 1311-3,1817.5416666666667
561,동작대교,C-10,10,326.0,192.0,131.0,103.0,140.0,355.0,840.0,1388.0,1709.0,1533.0,1522.0,1509.0,1466.0,1525.0,1600.0,1667.0,1842.0,1845.0,1499.0,1136.0,1013.0,969.0,901.0,528.0,37.509936,126.981814,서울시 용산구 이촌동 385,1072.4583333333333
573,동작대로(총신대입구역),D-31,10,818.0,514.0,371.0,301.0,446.0,1038.0,1800.0,2135.0,2221.0,2343.0,2335.0,2226.0,2189.0,2188.0,2164.0,2193.0,2247.0,2154.0,2035.0,1953.0,1997.0,1994.0,1839.0,1239.0,37.494352,126.982914,서울시 서초구 방배동 1255,1697.5
585,동호대교,C-14,10,490.0,380.0,299.0,246.0,295.0,459.0,917.0,1759.0,1975.0,2009.0,2049.0,1958.0,1882.0,1918.0,1940.0,1962.0,2010.0,2020.0,1610.0,1413.0,1433.0,1319.0,1060.0,697.0,37.538207,127.019882,서울시 성동구 옥수동 86,1337.5
597,동호로(금호터널),D-03,10,460.0,360.0,290.0,242.0,288.0,437.0,841.0,1483.0,1607.0,1622.0,1681.0,1720.0,1716.0,1768.0,1789.0,1737.0,1750.0,1745.0,1612.0,1426.0,1313.0,1162.0,946.0,636.0,37.551919,127.012977,서울시 중구 신당동 349-202,1192.9583333333333
609,동호로(장충체육관),A-10,10,303.0,228.0,191.0,135.0,159.0,234.0,401.0,819.0,961.0,1136.0,1229.0,1269.0,1305.0,1386.0,1472.0,1531.0,1617.0,1630.0,1518.0,1188.0,1047.0,875.0,725.0,442.0,37.558563,127.007101,서울시 중구 장충동2가 200-99,908.375
621,뚝섬로(용비교),D-06,10,468.0,307.0,209.0,180.0,226.0,466.0,1016.0,1540.0,1808.0,1933.0,1947.0,1884.0,1816.0,1860.0,1902.0,1880.0,1773.0,1820.0,1777.0,1575.0,1373.0,1312.0,1215.0,707.0,37.542006,127.020674,서울시 성동구 옥수동 산 1-11 ,1291.4166666666667
633,마포대교,C-07,10,779.0,532.0,368.0,295.0,402.0,975.0,2031.0,2821.0,3174.0,3026.0,3003.0,3072.0,2891.0,3069.0,3089.0,3109.0,3310.0,3424.0,3591.0,3059.0,2728.0,2440.0,2159.0,1201.0,37.533628,126.936512,서울시 영등포구 여의도동 85-2,2272.8333333333335
645,망우로(망우리공원),B-04,10,184.0,125.0,87.0,91.0,132.0,292.0,577.0,924.0,1050.0,924.0,851.0,853.0,832.0,863.0,893.0,936.0,1047.0,1147.0,1136.0,876.0,642.0,539.0,436.0,278.0,37.601476,127.115674,경기도 구리시 교문동 346-3,654.7916666666666
657,문성로(난곡터널),D-32,10,142.0,103.0,74.0,66.0,80.0,141.0,211.0,339.0,397.0,379.0,390.0,388.0,386.0,404.0,406.0,422.0,448.0,459.0,450.0,382.0,332.0,300.0,278.0,197.0,37.479046,126.924252,서울시 관악구 신림동 438-44,298.9166666666667
669,반포대교,C-11,10,676.0,418.0,288.0,222.0,276.0,640.0,1501.0,2273.0,2493.0,2502.0,2429.0,2539.0,2493.0,2500.0,2491.0,2570.0,2544.0,2558.0,2166.0,2068.0,2018.0,1984.0,1778.0,1062.0,37.514431,126.996663,서울시 서초구 반포동 647,1770.375
681,반포대로(서초역),D-37,10,484.0,297.0,195.0,150.0,190.0,501.0,1308.0,1982.0,2043.0,2328.0,2417.0,2405.0,2303.0,2359.0,2354.0,2317.0,2297.0,2132.0,2178.0,2035.0,1794.0,1744.0,1500.0,838.0,37.49624,127.005554,서울시 서초구 서초동 산 183-3 ,1589.625
693,반포대로(우면산터널),B-17,10,277.0,146.0,103.0,84.0,121.0,328.0,831.0,1352.0,1605.0,1635.0,1684.0,1764.0,1739.0,1738.0,1788.0,1839.0,1958.0,2064.0,2069.0,1696.0,1320.0,1132.0,995.0,517.0,37.483905,127.011416,서울시 서초구 서초동 1460-6,1199.375
705,밤고개로(세곡동사거리),B-13,10,109.0,73.0,58.0,53.0,95.0,226.0,537.0,1276.0,1528.0,1302.0,1223.0,1172.0,1105.0,1077.0,1111.0,1185.0,1362.0,1645.0,1524.0,991.0,683.0,552.0,424.0,232.0,37.462416,127.107883,서울시 강남구 세곡동 130-6,814.2916666666666
717,백제고분로(종합운동장),D-44,10,287.0,193.0,145.0,111.0,135.0,267.0,462.0,862.0,1003.0,1026.0,1001.0,1003.0,1009.0,1041.0,1044.0,1060.0,1103.0,1140.0,1055.0,900.0,834.0,861.0,694.0,412.0,37.510639,127.078559,서울시 송파구 잠실동 124,735.3333333333334
729,북부간선도로(신내IC),B-07,10,868.0,618.0,498.0,546.0,903.0,2082.0,2787.0,2958.0,3002.0,3162.0,3157.0,3161.0,3291.0,3335.0,3324.0,3349.0,3309.0,3080.0,3080.0,3005.0,2935.0,2806.0,2339.0,1427.0,37.613824,127.1087,서울시 중랑구 신내동 122-3,2459.25
741,북부간선로,F-04,10,947.0,714.0,560.0,554.0,940.0,2203.0,2643.0,2705.0,2732.0,2796.0,2752.0,2730.0,2758.0,2728.0,2739.0,2753.0,2772.0,2684.0,2622.0,2591.0,2602.0,2551.0,2016.0,1401.0,37.608556,127.052577,서울시 성북구 장위동 65-175 ,2187.2083333333335
753,분당수서로,F-07,10,1134.0,774.0,582.0,537.0,774.0,2086.0,3247.0,3415.0,3551.0,3682.0,3648.0,3621.0,3638.0,3574.0,3527.0,3604.0,3655.0,3585.0,3483.0,3322.0,3303.0,3225.0,2888.0,1856.0,37.497648,127.087195,서울시 강남구 일원동 467-1,2779.625
765,분당수서로(성남시계),B-14,10,799.0,522.0,398.0,376.0,583.0,1611.0,2594.0,2650.0,2651.0,2729.0,2709.0,2688.0,2663.0,2668.0,2684.0,2780.0,2828.0,2645.0,2604.0,2494.0,2562.0,2465.0,2202.0,1352.0,37.471129,127.123078,서울시 송파구 장지동 698-5,2094.0416666666665
777,사직로(사직터널),A-02,10,537.0,367.0,260.0,213.0,266.0,527.0,1098.0,1714.0,1893.0,1815.0,1803.0,1874.0,1800.0,1844.0,1872.0,1888.0,1925.0,1953.0,1822.0,1565.0,1394.0,1316.0,1143.0,765.0,37.572298,126.962853,서울시 종로구 행촌동 1-186,1318.9166666666667
789,사평대로(고속터미널역),D-36,10,701.0,467.0,329.0,258.0,324.0,734.0,1413.0,1981.0,2047.0,2187.0,2186.0,2233.0,2231.0,2307.0,2319.0,2358.0,2306.0,2274.0,2235.0,2203.0,2000.0,2003.0,1819.0,1031.0,37.503742,127.007779,서울시 서초구 반포동 60-2,1664.4166666666667
801,새문안로(서울역사박물관),A-14,10,339.0,252.0,181.0,156.0,183.0,368.0,694.0,1017.0,1145.0,1149.0,1194.0,1233.0,1234.0,1316.0,1295.0,1287.0,1263.0,1319.0,1252.0,1075.0,961.0,874.0,720.0,488.0,37.569776,126.971354,서울시 종로구 신문로2가 1-2,874.7916666666666
813,서강대교,C-06,10,233.0,152.0,101.0,84.0,120.0,246.0,539.0,1032.0,1206.0,1133.0,1112.0,1146.0,1077.0,1175.0,1200.0,1227.0,1311.0,1434.0,1424.0,1013.0,786.0,727.0,695.0,371.0,37.537537,126.925341,서울시 영등포구 여의도동 83-1,814.3333333333334
825,서부간선도로,F-09,10,1533.0,1025.0,763.0,710.0,1190.0,2125.0,2304.0,2223.0,2079.0,2294.0,2365.0,2298.0,2341.0,2216.0,2244.0,2273.0,2235.0,2060.0,2130.0,2255.0,2574.0,2613.0,2517.0,2131.0,37.520965,126.881826,서울시 영등포구 문래동6가 52,2020.75
837,서빙고로(한남역),D-04,10,713.0,489.0,339.0,281.0,341.0,619.0,1178.0,1818.0,2179.0,2253.0,2325.0,2352.0,2365.0,2404.0,2477.0,2540.0,2592.0,2616.0,2545.0,2189.0,1973.0,1930.0,1776.0,1067.0,37.527197,127.004697,서울시 용산구 한남동 542-10,1723.375
849,서소문로(시청역),A-16,10,353.0,250.0,181.0,151.0,187.0,383.0,753.0,960.0,1038.0,1062.0,1083.0,1124.0,1105.0,1137.0,1129.0,1182.0,1194.0,1268.0,1156.0,1052.0,896.0,860.0,730.0,510.0,37.562819,126.972716,서울시 중구 서소문동 72-2,822.6666666666666
861,서오릉로(고양시계),B-34,10,272.0,173.0,139.0,134.0,201.0,390.0,757.0,1147.0,1235.0,1167.0,1167.0,1194.0,1217.0,1246.0,1259.0,1281.0,1337.0,1403.0,1360.0,1172.0,870.0,754.0,626.0,370.0,37.617883,126.90626,서울시 은평구 구산동 304-15,869.625
873,서하남로(서하남IC),B-08,10,452.0,365.0,285.0,269.0,426.0,1094.0,1980.0,2666.0,2687.0,2783.0,2819.0,2774.0,2804.0,2878.0,2962.0,2994.0,3074.0,3085.0,2903.0,2514.0,2142.0,1750.0,1339.0,774.0,37.516777,127.146728,경기도 하남시 감북동 442-15,1992.4583333333333
885,성산대교,C-04,10,1441.0,969.0,732.0,681.0,1146.0,2591.0,3467.0,3641.0,3913.0,3973.0,3911.0,3834.0,3903.0,3825.0,3922.0,3975.0,4040.0,3933.0,3922.0,3819.0,3590.0,3476.0,3203.0,2128.0,37.55268,126.891564,서울시 마포구 망원동 306-53,3084.7916666666665
897,성산로(금화터널),A-01,10,,,,,,,,,,,,,,,,,,,,,,,,,37.568588,126.948436,서울시 서대문구 신촌동 1-142,
909,성산로(연희IC),D-16,10,512.0,329.0,229.0,211.0,355.0,904.0,1703.0,1857.0,1641.0,2042.0,2122.0,2077.0,1996.0,2055.0,1985.0,1961.0,1880.0,1868.0,1837.0,1506.0,1290.0,1276.0,1064.0,794.0,37.563506,126.9301,서울시 서대문구 연희동 341-41,1395.5833333333333
921,성수대교,C-15,10,1403.0,959.0,716.0,636.0,926.0,1747.0,2520.0,3042.0,3420.0,3343.0,3301.0,3233.0,3269.0,3386.0,3372.0,3490.0,3574.0,3538.0,3189.0,2782.0,2860.0,3014.0,2861.0,2048.0,37.536768,127.034972,서울시 성동구 옥수동 484,2609.5416666666665
933,세종대로(서울역),A-13,10,330.0,202.0,135.0,91.0,172.0,414.0,762.0,1169.0,1368.0,1400.0,1437.0,1519.0,1511.0,1566.0,1584.0,1578.0,1541.0,1552.0,1443.0,1167.0,1036.0,891.0,766.0,567.0,37.558061,126.973439,서울시 중구 남대문로5가 84-15,1008.375
945,세종대로(시청역2),A-17,10,351.0,214.0,142.0,96.0,135.0,328.0,826.0,1392.0,1687.0,1715.0,1659.0,1730.0,1645.0,1708.0,1795.0,1745.0,1815.0,1790.0,1702.0,1361.0,1206.0,1131.0,881.0,570.0,37.567496,126.977208,서울시 중구 태평로1가 61-29,1151.0
957,소월로(회현역),A-23,10,31.0,24.0,16.0,13.0,12.0,33.0,75.0,269.0,335.0,304.0,273.0,293.0,290.0,320.0,332.0,332.0,342.0,350.0,327.0,247.0,175.0,120.0,80.0,50.0,37.557044,126.976362,서울시 중구 남창동 217-1,193.45833333333334
969,소파로(숭의여자대학교),A-24,10,43.0,28.0,24.0,16.0,15.0,21.0,49.0,158.0,327.0,240.0,248.0,282.0,319.0,373.0,371.0,380.0,359.0,344.0,341.0,254.0,198.0,153.0,103.0,63.0,37.554896,126.983521,서울시 중구 회현동1가 산1-16,196.20833333333334
981,송파대로(복정역),B-12,10,400.0,286.0,214.0,190.0,286.0,616.0,1076.0,1664.0,1699.0,1738.0,1697.0,1603.0,1543.0,1566.0,1561.0,1616.0,1750.0,1798.0,1686.0,1276.0,1107.0,1052.0,892.0,581.0,37.468797,127.126419,서울시 송파구 장지동 697-14,1162.375
993,송파대로(송파역),D-45,10,650.0,478.0,340.0,294.0,383.0,634.0,1192.0,1786.0,1998.0,1961.0,1985.0,1984.0,1965.0,2005.0,2000.0,2063.0,2124.0,2102.0,2090.0,1874.0,1727.0,1577.0,1397.0,936.0,37.500537,127.111445,서울시 송파구 송파동 2-15 ,1481.0416666666667
1005,수색로(고양시계),B-35,10,430.0,207.0,146.0,144.0,230.0,489.0,833.0,833.0,994.0,1094.0,1261.0,1375.0,1410.0,1385.0,1381.0,1424.0,1496.0,1557.0,1558.0,1425.0,1104.0,983.0,893.0,625.0,37.587472,126.886414,서울시 은평구 수색동 281-12,969.875
1017,시흥대로(구로디지털단지역),D-26,10,490.0,331.0,247.0,213.0,409.0,898.0,1142.0,1657.0,1833.0,1802.0,1882.0,1852.0,1852.0,1844.0,1900.0,1905.0,2039.0,2118.0,2005.0,1722.0,1498.0,1340.0,1116.0,723.0,37.486787,126.904415,서울시 영등포구 대림동 993-57,1367.4166666666667
1029,시흥대로(석수역),B-18,10,539.0,306.0,216.0,197.0,401.0,1058.0,1634.0,2056.0,2053.0,2179.0,2254.0,2186.0,2157.0,2176.0,2204.0,2303.0,2373.0,2457.0,2390.0,2149.0,1790.0,1555.0,1248.0,777.0,37.437013,126.902811,서울시 금천구 시흥동 1001-34,1610.75
1041,시흥대로(시흥IC),D-24,10,456.0,296.0,225.0,201.0,436.0,1062.0,1328.0,1983.0,2176.0,2159.0,2140.0,2087.0,2009.0,2064.0,2101.0,2099.0,2168.0,2243.0,2081.0,1860.0,1627.0,1417.0,1129.0,741.0,37.477189,126.898532,서울시 금천구 독산동 142-7,1503.6666666666667
1053,신정로(작동터널),B-30,10,,,,,,,,,,,,,,,,,,,,,,,,,37.506104,126.824602,서울시 구로구 궁동 산 1-94,
1065,아차산로(워커힐),B-03,10,114.0,77.0,67.0,54.0,67.0,180.0,452.0,867.0,866.0,860.0,830.0,839.0,790.0,788.0,814.0,825.0,852.0,964.0,1003.0,680.0,540.0,482.0,346.0,199.0,37.550897,127.108955,서울시 광진구 광장동 145-2,564.8333333333334
1077,양녕로(상도터널),D-30,10,770.0,494.0,348.0,288.0,377.0,763.0,1361.0,1655.0,1657.0,1899.0,1856.0,1839.0,1812.0,1830.0,1812.0,1812.0,1863.0,1819.0,1726.0,1693.0,1675.0,1678.0,1571.0,1100.0,37.511204,126.953469,서울시 동작구 본동 136-4,1404.0833333333333
1089,양재대로(양재IC),B-16,10,1038.0,668.0,478.0,407.0,643.0,1636.0,3093.0,3898.0,3949.0,4065.0,4046.0,3947.0,4006.0,4095.0,4157.0,4360.0,4694.0,4836.0,4355.0,3784.0,3329.0,3136.0,2725.0,1683.0,37.460089,127.030175,경기도 과천시 주암동 89-18,3042.8333333333335
1101,양화대교,C-05,10,1314.0,904.0,664.0,564.0,713.0,1498.0,2533.0,3069.0,3481.0,3433.0,3505.0,3486.0,3307.0,3356.0,3387.0,3422.0,3545.0,3514.0,3614.0,3230.0,2890.0,2798.0,2636.0,1848.0,37.542913,126.903766,서울시 마포구 합정동 351-4,2612.9583333333335
1113,언주로(매봉터널),D-38,10,402.0,270.0,192.0,150.0,186.0,382.0,775.0,1304.0,1476.0,1588.0,1537.0,1521.0,1557.0,1575.0,1637.0,1612.0,1661.0,1657.0,1654.0,1494.0,1391.0,1359.0,1217.0,626.0,37.492009,127.047969,서울시 강남구 도곡동 산 6-13,1134.2916666666667
1125,여의대방로(여의교),D-29,10,728.0,478.0,321.0,260.0,354.0,738.0,1292.0,1944.0,2224.0,2245.0,2166.0,2149.0,2077.0,2175.0,2203.0,2239.0,2347.0,2411.0,2218.0,1968.0,1799.0,1729.0,1536.0,1033.0,37.516852,126.928374,서울시 영등포구 여의도동 5-7,1609.75
1137,연희로(연희IC),D-17,10,313.0,208.0,150.0,110.0,130.0,254.0,479.0,733.0,770.0,890.0,957.0,965.0,984.0,993.0,1004.0,1044.0,1050.0,1083.0,1055.0,930.0,808.0,778.0,665.0,476.0,37.566264,126.930537,서울시 서대문구 연희동 187-58,701.2083333333334
1149,영동대교,C-16,10,1053.0,738.0,548.0,437.0,521.0,1029.0,1982.0,2644.0,3011.0,3096.0,3220.0,3324.0,3237.0,3375.0,3441.0,3546.0,3733.0,3647.0,3279.0,3025.0,2802.0,2746.0,2421.0,1498.0,37.530295,127.057339,서울시 광진구 자양동 825-1,2431.375
1161,영등포로(오목교),D-25,10,375.0,252.0,192.0,162.0,210.0,421.0,740.0,1230.0,1367.0,1507.0,1501.0,1535.0,1490.0,1547.0,1577.0,1578.0,1618.0,1632.0,1533.0,1314.0,1187.0,1088.0,900.0,541.0,37.523175,126.883725,서울시 영등포구 양평동2가 20-1,1062.375
1173,오리로(광명시계),B-20,10,172.0,110.0,77.0,76.0,131.0,273.0,466.0,659.0,728.0,729.0,731.0,705.0,697.0,711.0,728.0,754.0,795.0,789.0,750.0,651.0,521.0,455.0,370.0,229.0,37.482607,126.843109,서울시 구로구 천왕동 10-1,512.7916666666666
1185,오정로(부천시계),B-26,10,99.0,68.0,61.0,67.0,182.0,398.0,531.0,723.0,692.0,610.0,596.0,615.0,603.0,632.0,648.0,651.0,747.0,822.0,745.0,596.0,414.0,365.0,312.0,197.0,37.542779,126.809411,서울시 강서구 공항동 406-13,473.9166666666667
1197,올림픽대교,C-19,10,283.0,177.0,125.0,122.0,196.0,547.0,1217.0,1853.0,2021.0,1922.0,1983.0,1838.0,1788.0,1933.0,2041.0,2104.0,2247.0,2335.0,2266.0,1925.0,1434.0,1223.0,983.0,529.0,37.533789,127.10412,서울시 송파구 신천동 253,1378.8333333333333
1209,올림픽대로,F-01,10,2602.0,1780.0,1370.0,1303.0,1980.0,4157.0,5627.0,6013.0,6314.0,6358.0,6342.0,6430.0,6435.0,6579.0,6521.0,6401.0,6210.0,5970.0,5731.0,5771.0,5951.0,5982.0,5800.0,4048.0,37.506002,126.97375,서울시 동작구 동작동 322-3,5069.791666666667
1221,올림픽대로(강일IC),B-10,10,1343.0,858.0,661.0,659.0,1153.0,2957.0,4868.0,5248.0,5651.0,5843.0,5587.0,5322.0,5443.0,5692.0,5775.0,5801.0,5845.0,5793.0,5758.0,5510.0,5110.0,4509.0,3741.0,2327.0,37.569891,127.157292,서울시 강동구 고덕동 365-3,4227.25
1233,올림픽대로(개화IC),B-32,10,1351.0,1009.0,842.0,852.0,1331.0,2968.0,4216.0,3918.0,4051.0,4321.0,4565.0,4663.0,4688.0,4758.0,4870.0,4986.0,4995.0,4866.0,5098.0,4711.0,4188.0,3756.0,3303.0,2216.0,37.587814,126.812795,서울 강서구 개화동 280-2,3605.0833333333335
1245,원효대교,C-08,10,326.0,232.0,146.0,113.0,157.0,398.0,763.0,1327.0,1530.0,1405.0,1435.0,1437.0,1354.0,1443.0,1467.0,1503.0,1544.0,1530.0,1387.0,1084.0,917.0,846.0,747.0,471.0,37.526745,126.945137,서울시 영등포구 여의도동 87-2,981.75
1257,율곡로(안국역),A-05,10,477.0,319.0,240.0,203.0,263.0,441.0,824.0,1192.0,1317.0,1360.0,1435.0,1496.0,1517.0,1537.0,1544.0,1533.0,1481.0,1471.0,1313.0,1224.0,1142.0,1103.0,972.0,677.0,37.576,126.984342,서울시 종로구 경운동 90-4,1045.0416666666667
1269,을지로(을지로3가역),A-18,10,241.0,203.0,166.0,143.0,157.0,216.0,394.0,669.0,758.0,771.0,846.0,893.0,900.0,906.0,927.0,925.0,877.0,839.0,764.0,718.0,619.0,523.0,435.0,321.0,37.566114,126.989326,서울시 중구 을지로2가 149-10,592.125
1281,자하문로(자하문터널),A-03,10,157.0,97.0,67.0,54.0,77.0,177.0,506.0,725.0,730.0,776.0,771.0,697.0,687.0,725.0,755.0,783.0,832.0,837.0,798.0,678.0,544.0,503.0,415.0,256.0,37.588831,126.968548,서울시 종로구 청운동 24-6,526.9583333333334
1293,잠수교,C-12,10,184.0,113.0,70.0,48.0,55.0,153.0,357.0,543.0,602.0,644.0,638.0,628.0,604.0,617.0,645.0,652.0,688.0,691.0,590.0,534.0,475.0,492.0,501.0,293.0,37.50826,126.999744,서울시 서초구 잠원동 114,450.7083333333333
1305,잠실대교,C-18,10,771.0,519.0,366.0,306.0,388.0,801.0,1631.0,2331.0,2462.0,2410.0,2507.0,2467.0,2408.0,2414.0,2518.0,2694.0,2742.0,2708.0,2914.0,2595.0,2344.0,2198.0,1890.0,1236.0,37.523821,127.092036,서울시 송파구 신천동 245,1900.8333333333333
1317,장충단로(장충단공원),A-11,10,304.0,220.0,173.0,134.0,178.0,290.0,548.0,1024.0,1202.0,1252.0,1251.0,1356.0,1376.0,1416.0,1436.0,1458.0,1456.0,1430.0,1324.0,1082.0,904.0,809.0,702.0,444.0,37.556889,127.004655,서울시 중구 장충동2가 산6-6,907.0416666666666
1329,종로(동묘앞역),A-08,10,571.0,424.0,348.0,304.0,372.0,582.0,894.0,1115.0,1212.0,1310.0,1353.0,1310.0,1322.0,1319.0,1319.0,1329.0,1340.0,1291.0,1249.0,1222.0,1168.0,1069.0,940.0,729.0,37.573262,127.017112,서울시 종로구 숭인동 273,1003.8333333333334
1341,종로(종로3가역),A-15,10,371.0,276.0,207.0,173.0,202.0,375.0,671.0,979.0,1047.0,1114.0,1135.0,1167.0,1158.0,1177.0,1176.0,1181.0,1156.0,1122.0,1075.0,986.0,872.0,777.0,649.0,481.0,37.570216,126.990832,서울시 종로구 종로3가 137-3,813.625
1353,증산로(디지털미디어시티역),D-14,10,565.0,385.0,295.0,329.0,593.0,1304.0,1773.0,1627.0,1663.0,1940.0,1911.0,1794.0,1813.0,1818.0,1786.0,1800.0,1845.0,1655.0,1505.0,1359.0,1345.0,1323.0,1175.0,815.0,37.579684,126.905124,서울시 은평구 증산동 199-12,1350.75
1365,진흥로(구기터널),D-01,10,243.0,148.0,103.0,90.0,134.0,316.0,806.0,1107.0,1186.0,1231.0,1227.0,1166.0,1129.0,1149.0,1194.0,1233.0,1379.0,1436.0,1343.0,1131.0,885.0,810.0,650.0,399.0,37.608686,126.955198,서울시 종로구 구기동 244-7,853.9583333333334
1377,창경궁로(서울여자대학교),A-06,10,376.0,241.0,175.0,144.0,218.0,399.0,745.0,1061.0,1123.0,1086.0,1038.0,1077.0,1033.0,1024.0,1047.0,1047.0,1045.0,1004.0,922.0,847.0,858.0,844.0,752.0,538.0,37.582526,126.998011,서울시 종로구 명륜4가 197-5,776.8333333333334
1389,천호대교,C-20,10,538.0,350.0,267.0,223.0,310.0,690.0,1354.0,1864.0,1967.0,1926.0,1962.0,1912.0,1862.0,1868.0,1940.0,1983.0,2021.0,2045.0,2033.0,1802.0,1587.0,1398.0,1316.0,820.0,37.542673,127.112883,서울시 송파구 풍납동 383,1418.25
1401,천호대로(군자교),D-05,10,603.0,448.0,355.0,308.0,357.0,678.0,1199.0,1882.0,2379.0,2254.0,2224.0,2224.0,2155.0,2215.0,2290.0,2357.0,2425.0,2488.0,2526.0,2283.0,1859.0,1565.0,1394.0,917.0,37.560716,127.068571,서울시 성동구 용답동 224-4,1641.0416666666667
1413,천호대로(상일IC),B-09,10,445.0,292.0,208.0,193.0,352.0,867.0,1709.0,2622.0,3063.0,2855.0,2931.0,2820.0,2771.0,2902.0,2926.0,3020.0,3191.0,3371.0,3257.0,2627.0,2008.0,1672.0,1309.0,736.0,37.547459,127.175222,서울시 강동구 상일동 12-2,2006.125
1425,철산교(광명시계),B-23,10,329.0,210.0,160.0,139.0,252.0,547.0,645.0,837.0,953.0,1011.0,989.0,972.0,972.0,1034.0,1031.0,998.0,935.0,877.0,822.0,866.0,838.0,817.0,686.0,462.0,37.474933,126.878154,서울시 금천구 가산동 614-72,724.25
1437,청담대교,C-17,10,927.0,641.0,478.0,474.0,705.0,1847.0,2832.0,3012.0,3192.0,3281.0,3341.0,3326.0,3275.0,3234.0,3280.0,3448.0,3622.0,3359.0,3185.0,3080.0,3139.0,3009.0,2706.0,1537.0,37.525513,127.064067,서울시 강남구 청담동 345,2538.75
1449,칠패로(숭례문),A-19,10,128.0,89.0,66.0,50.0,57.0,102.0,173.0,289.0,359.0,378.0,408.0,435.0,420.0,450.0,460.0,469.0,475.0,468.0,441.0,378.0,336.0,299.0,262.0,194.0,37.559593,126.972518,서울시 중구 봉래동1가 47-2,299.4166666666667
1461,테헤란로(선릉역),D-42,10,670.0,518.0,386.0,306.0,299.0,439.0,802.0,1396.0,1611.0,1785.0,1796.0,1853.0,1817.0,1924.0,1879.0,1898.0,1807.0,1772.0,1547.0,1486.0,1373.0,1433.0,1281.0,821.0,37.505483,127.052134,서울시 강남구 삼성동 172-66,1287.4583333333333
1473,통일로(고양시계),B-33,10,329.0,195.0,129.0,121.0,232.0,500.0,912.0,1273.0,1364.0,1418.0,1463.0,1443.0,1464.0,1479.0,1506.0,1545.0,1544.0,1470.0,1377.0,1242.0,1057.0,950.0,769.0,516.0,37.644685,126.91127,경기 고양시 덕양구 동산동 2-13,1012.4166666666666
1485,통일로(산골고개정류장),D-15,10,706.0,458.0,358.0,340.0,660.0,1422.0,1894.0,1751.0,1694.0,1828.0,1888.0,1822.0,1845.0,1814.0,1869.0,1888.0,1958.0,1866.0,1726.0,1563.0,1562.0,1602.0,1381.0,1022.0,37.594931,126.940246,서울시 서대문구 홍은동 137-8,1454.875
1497,퇴계로(신당역),A-09,10,451.0,346.0,291.0,244.0,293.0,427.0,641.0,857.0,912.0,980.0,1051.0,1096.0,1108.0,1109.0,1109.0,1105.0,1108.0,1058.0,965.0,967.0,919.0,811.0,687.0,572.0,37.565712,127.020912,서울시 중구 황학동 710,796.125
1509,퇴계로(회현역),A-12,10,232.0,193.0,149.0,134.0,149.0,316.0,547.0,707.0,809.0,817.0,819.0,854.0,841.0,866.0,856.0,847.0,819.0,807.0,748.0,650.0,587.0,550.0,486.0,322.0,37.557432,126.976486,서울시 중구 남창동 236-2,587.7083333333334
1521,평창문화로(북악터널),D-02,10,258.0,155.0,100.0,89.0,139.0,323.0,748.0,1038.0,1099.0,1169.0,1174.0,1167.0,1160.0,1196.0,1250.0,1314.0,1423.0,1440.0,1331.0,1058.0,861.0,798.0,670.0,417.0,37.611547,126.979308,서울시 종로구 평창동 2-15,849.0416666666666
1533,한강대교,C-09,10,940.0,591.0,410.0,357.0,476.0,1018.0,1760.0,2170.0,2376.0,2406.0,2431.0,2406.0,2331.0,2366.0,2430.0,2517.0,2702.0,2722.0,2818.0,2551.0,2232.0,2197.0,1984.0,1375.0,37.51816,126.959472,서울시 용산구 이촌동 302-211,1898.5833333333333
1545,한남대교,C-13,10,1613.0,1082.0,776.0,662.0,877.0,1910.0,3498.0,4447.0,4932.0,4976.0,4901.0,4968.0,4831.0,4974.0,5028.0,5052.0,4970.0,4860.0,4392.0,4031.0,3918.0,4192.0,3963.0,2535.0,37.526946,127.01319,서울시 강남구 신사동 490,3641.1666666666665
1557,행주대교,C-01,10,425.0,299.0,234.0,244.0,430.0,975.0,2018.0,2710.0,2737.0,2777.0,2946.0,2925.0,2838.0,2921.0,3099.0,3264.0,3607.0,3631.0,3541.0,2848.0,1912.0,1585.0,1310.0,762.0,37.598121,126.809931,서울시 강서구 개화동 652,2084.9166666666665
1569,헌릉로(세곡동사거리),D-40,10,248.0,148.0,111.0,88.0,153.0,448.0,1025.0,1536.0,1683.0,1821.0,1857.0,1797.0,1709.0,1717.0,1786.0,1883.0,2083.0,2097.0,1943.0,1507.0,1177.0,1004.0,819.0,429.0,37.465092,127.105635,서울시 강남구 세곡동 산 30-4,1211.2083333333333
1581,화곡로(화곡로입구),B-27,10,265.0,179.0,140.0,134.0,211.0,528.0,819.0,926.0,986.0,915.0,965.0,959.0,970.0,977.0,983.0,1002.0,1027.0,998.0,930.0,830.0,747.0,678.0,620.0,404.0,37.539227,126.823123,서울시 양천구 신월동 37-1,716.375
1593,화랑로(상월곡역),D-08,10,715.0,522.0,413.0,399.0,584.0,1114.0,1347.0,1507.0,1758.0,1769.0,1738.0,1773.0,1763.0,1737.0,1740.0,1719.0,1715.0,1719.0,1706.0,1725.0,1652.0,1598.0,1453.0,1027.0,37.603932,127.044044,서울시 성북구 하월곡동 37-7,1383.0416666666667
1605,화랑로(조선왕릉),B-06,10,301.0,222.0,160.0,140.0,213.0,462.0,910.0,1373.0,1430.0,1396.0,1326.0,1314.0,1326.0,1336.0,1374.0,1431.0,1483.0,1472.0,1438.0,1229.0,977.0,890.0,775.0,467.0,37.630725,127.098984,서울시 노원구 공릉동산223-19,976.875
1617,화랑로(화랑대역),D-10,10,616.0,415.0,306.0,289.0,445.0,974.0,1430.0,1593.0,1644.0,1774.0,1898.0,1836.0,1844.0,1865.0,1882.0,1866.0,1824.0,1782.0,1801.0,1768.0,1605.0,1517.0,1386.0,940.0,37.619936,127.08295,"서울시, 노원구 공릉동 280-2",1387.5
