,지점명,지점번호,월,0시,1시,2시,3시,4시,5시,6시,7시,8시,9시,10시,11시,12시,13시,14시,15시,16시,17시,18시,19시,20시,21시,22시,23시,위도,경도,주소,하루평균
10,가양대교,C-03,11,1270.0,966.0,742.0,686.0,905.0,1907.0,2774.0,2860.0,3072.0,3131.0,3067.0,2989.0,2979.0,3043.0,3072.0,3127.0,3247.0,3020.0,2902.0,2801.0,2665.0,2554.0,2293.0,1657.0,37.571567,126.862726,서울시 마포구 상암동 506-68,2405.375
22,강남대로(강남역-신분당),D-35,11,567.0,427.0,342.0,255.0,213.0,324.0,731.0,1180.0,1355.0,1374.0,1368.0,1449.0,1465.0,1533.0,1537.0,1577.0,1632.0,1669.0,1680.0,1500.0,1255.0,1127.0,1003.0,763.0,37.49059,127.03116,서울시 강남구 역삼동 858,1096.9166666666667
34,강남대로(신사역),D-43,11,906.0,737.0,644.0,512.0,428.0,563.0,993.0,1455.0,1556.0,1645.0,1627.0,1611.0,1630.0,1602.0,1739.0,1746.0,1806.0,1911.0,1980.0,1888.0,1732.0,1681.0,1534.0,1193.0,37.514859,127.020098,서울시 강남구 논현동 17-5,1379.9583333333333
46,강남순환로,F-08,11,569.0,355.0,244.0,196.0,264.0,854.0,2037.0,2727.0,2741.0,2554.0,2405.0,2228.0,2273.0,2404.0,2444.0,2519.0,2844.0,2990.0,2816.0,2371.0,1840.0,1593.0,1308.0,884.0,37.449096,126.926169,서울시 금천구 시흥동 산 93-1,1810.8333333333333
58,강변북로,F-02,11,3146.0,2150.0,1571.0,1357.0,1793.0,3903.0,5714.0,6058.0,6280.0,6340.0,6139.0,6126.0,6219.0,6196.0,6098.0,6034.0,5680.0,4887.0,4503.0,4965.0,5749.0,5982.0,5394.0,4274.0,37.517004,126.973968,서울시 용산구 이촌동 302-131,4856.583333333333
70,강변북로(구리시계),B-37,11,1005.0,690.0,505.0,446.0,622.0,1669.0,3358.0,3491.0,3889.0,3929.0,3989.0,3989.0,3900.0,3995.0,3995.0,4142.0,4314.0,4206.0,4012.0,3567.0,3015.0,2550.0,2091.0,1487.0,37.558389,127.114274,경기도 구리시 아천동 390,2869.0
82,강변북로(난지한강공원),B-36,11,2641.0,1818.0,1392.0,1317.0,1892.0,4382.0,5725.0,5639.0,5799.0,6037.0,6315.0,6421.0,6675.0,6706.0,6501.0,6481.0,6235.0,5945.0,6018.0,6139.0,5998.0,5763.0,4996.0,3678.0,37.570903,126.872321,서울시 마포구 상암동 481-226,5021.375
94,강서로(화곡터널),D-20,11,520.0,412.0,319.0,258.0,281.0,468.0,704.0,929.0,973.0,1031.0,973.0,963.0,948.0,974.0,983.0,991.0,975.0,1000.0,994.0,949.0,894.0,844.0,742.0,604.0,37.534375,126.845094,서울시 강서구 화곡동 산172-2,780.375
106,개봉로(개봉교),B-21,11,236.0,180.0,133.0,106.0,175.0,374.0,522.0,601.0,632.0,643.0,639.0,644.0,619.0,640.0,652.0,682.0,722.0,724.0,711.0,601.0,509.0,466.0,382.0,312.0,37.486181,126.8565,서울시 구로구 개봉동 403-97,496.0416666666667
118,경부고속도로,F-06,11,2617.0,1836.0,1386.0,1241.0,1706.0,3789.0,5426.0,4946.0,4957.0,4876.0,4802.0,4782.0,4720.0,4768.0,4791.0,4795.0,4675.0,4311.0,4239.0,4530.0,4583.0,5425.0,4960.0,3827.0,37.493135,127.022533,서울시 서초구 서초동 1748-26 ,4082.8333333333335
130,경부고속도로(양재IC),B-11,11,2274.0,1544.0,1140.0,1000.0,1376.0,3347.0,5483.0,4957.0,4988.0,4801.0,4689.0,4567.0,4498.0,4516.0,4547.0,4649.0,4752.0,4682.0,4536.0,4658.0,4707.0,5156.0,4597.0,3425.0,37.465083,127.038643,서울시 서초구 양재동 227-4,3953.7083333333335
142,경인고속국도(신월IC),B-28,11,2202.0,1556.0,1139.0,983.0,1262.0,3011.0,4345.0,4823.0,4658.0,4709.0,4793.0,4700.0,4750.0,4931.0,4924.0,5075.0,5242.0,5134.0,4905.0,4717.0,4428.0,4121.0,3714.0,2900.0,37.524875,126.831933,서울시 양천구 신월동 904-1,3875.9166666666665
154,경인로(거리공원입구교차로),D-23,11,430.0,348.0,249.0,197.0,278.0,611.0,883.0,1098.0,1193.0,1194.0,1173.0,1167.0,1178.0,1198.0,1202.0,1210.0,1241.0,1305.0,1259.0,1209.0,1094.0,1044.0,851.0,643.0,37.50644,126.884382,서울시 구로구 신도림동 435-17,927.2916666666666
166,경인로(서울교),D-28,11,722.0,567.0,414.0,314.0,384.0,799.0,1557.0,2485.0,2735.0,2657.0,2556.0,2515.0,2372.0,2486.0,2530.0,2545.0,2637.0,2776.0,2697.0,2383.0,2036.0,1858.0,1530.0,1039.0,37.52019,126.914903,서울시 영등포구 영등포동2가 97-1,1858.0833333333333
178,경인로(오류IC),D-22,11,,,,,,,,,,,,,,,,,,,,,,,,,37.498246,126.851219,서울시 구로구 개봉동 80-22,
190,경인로(유한공고),B-29,11,369.0,276.0,200.0,152.0,232.0,461.0,639.0,851.0,933.0,878.0,818.0,790.0,813.0,818.0,827.0,842.0,946.0,981.0,968.0,840.0,718.0,655.0,570.0,438.0,37.488614,126.822789,경기도 부천시 소사구 괴안동 206-5,667.2916666666666
202,경춘북로(중랑경찰서),B-05,11,330.0,228.0,161.0,147.0,240.0,546.0,980.0,1382.0,1520.0,1390.0,1261.0,1216.0,1239.0,1269.0,1285.0,1360.0,1542.0,1653.0,1596.0,1271.0,973.0,844.0,663.0,457.0,37.619942,127.105325,서울시 중랑구 신내동 271-1,981.375
214,공항대로(발산역),D-21,11,462.0,342.0,263.0,224.0,308.0,533.0,815.0,1281.0,1487.0,1450.0,1446.0,1446.0,1443.0,1465.0,1507.0,1498.0,1533.0,1528.0,1493.0,1288.0,1072.0,949.0,806.0,596.0,37.559251,126.831069,서울시 강서구 마곡동 727-1154,1051.4583333333333
226,과천대로(남태령역),B-15,11,600.0,372.0,248.0,191.0,279.0,748.0,1546.0,1921.0,1962.0,1868.0,1824.0,1757.0,1736.0,1771.0,1754.0,1719.0,1792.0,1764.0,1724.0,1550.0,1468.0,1356.0,1147.0,865.0,37.463288,126.988151,서울시 서초구 방배동 산190-1 ,1331.75
238,광명대교(광명시계),B-22,11,193.0,138.0,95.0,87.0,143.0,321.0,482.0,771.0,744.0,782.0,778.0,710.0,657.0,676.0,688.0,718.0,754.0,823.0,825.0,697.0,516.0,431.0,356.0,259.0,37.485044,126.873297,서울시 금천구 가산동 535-121,526.8333333333334
250,광진교,C-21,11,99.0,75.0,61.0,53.0,59.0,131.0,223.0,397.0,571.0,483.0,460.0,421.0,388.0,399.0,424.0,462.0,533.0,690.0,752.0,480.0,294.0,243.0,195.0,125.0,37.54412,127.115274,서울시 강동구 천호동 484-9,334.0833333333333
262,국회대로(여의2교),D-27,11,514.0,380.0,231.0,191.0,239.0,372.0,746.0,1277.0,1583.0,1460.0,1386.0,1415.0,1351.0,1458.0,1527.0,1550.0,1594.0,1552.0,1506.0,1337.0,1208.0,1152.0,1011.0,728.0,37.526003,126.910953,서울시 영등포구 영등포동7가 94-411,1073.6666666666667
274,금오로(광명시계),B-19,11,47.0,31.0,22.0,22.0,43.0,118.0,206.0,299.0,313.0,323.0,277.0,267.0,262.0,284.0,289.0,313.0,340.0,372.0,334.0,264.0,180.0,128.0,97.0,69.0,37.482431,126.841891,서울시 구로구 천왕동 24-2,204.16666666666666
286,금천교(광명시계),B-24,11,448.0,314.0,236.0,205.0,281.0,645.0,1064.0,1531.0,1583.0,1593.0,1583.0,1532.0,1446.0,1572.0,1581.0,1612.0,1653.0,1680.0,1564.0,1371.0,1095.0,955.0,789.0,585.0,37.465046,126.884245,서울시 금천구 독산동 668-54,1121.5833333333333
298,금하로(광명시계),B-25,11,229.0,146.0,109.0,89.0,143.0,324.0,659.0,924.0,970.0,1002.0,1012.0,958.0,931.0,978.0,1017.0,1061.0,1118.0,1167.0,1137.0,928.0,718.0,603.0,435.0,298.0,37.4514,126.891627,경기도 광명시 소하동 31-25,706.5
310,김포대로(개화교),B-31,11,332.0,219.0,162.0,152.0,253.0,615.0,1213.0,1504.0,1494.0,1497.0,1368.0,1302.0,1277.0,1297.0,1320.0,1394.0,1589.0,1790.0,1718.0,1306.0,997.0,884.0,750.0,499.0,37.585313,126.795571,경기도 김포시 고촌읍 전호리 436-3,1038.8333333333333
322,남부순환로(낙성대역),D-33,11,1292.0,1094.0,840.0,622.0,648.0,1105.0,1608.0,2270.0,2448.0,2446.0,2377.0,2323.0,2282.0,2336.0,2395.0,2439.0,2521.0,2457.0,2343.0,2248.0,2083.0,2057.0,1871.0,1514.0,37.477711,126.962242,서울시 관악구 봉천동 1685-32,1900.7916666666667
334,남부순환로(수서IC),D-39,11,1054.0,819.0,645.0,606.0,760.0,1211.0,1760.0,2475.0,2703.0,2711.0,2685.0,2621.0,2569.0,2704.0,2651.0,2659.0,2690.0,2651.0,2575.0,2362.0,2172.0,2182.0,1954.0,1372.0,37.495912,127.090903,서울시 강남구 일원동 3-16,2024.625
346,남부순환로(신월IC),D-19,11,988.0,723.0,579.0,538.0,806.0,2026.0,2823.0,3192.0,3216.0,3220.0,3128.0,3044.0,2986.0,3040.0,3054.0,3054.0,3070.0,3019.0,2949.0,2728.0,2510.0,2287.0,1955.0,1386.0,37.524081,126.835862,서울시 양천구 신월동 838 ,2346.7083333333335
358,남부순환로(예술의전당),D-34,11,832.0,685.0,501.0,351.0,429.0,901.0,1590.0,2338.0,2467.0,2434.0,2229.0,2056.0,2010.0,2111.0,2182.0,2248.0,2408.0,2540.0,2424.0,2108.0,1795.0,1786.0,1582.0,1128.0,37.476405,127.00445,서울시 서초구 방배동 1009-3,1713.9583333333333
370,남부순환로(화곡로입구 교차로),D-18,11,577.0,432.0,346.0,322.0,530.0,1162.0,1789.0,1977.0,2220.0,2141.0,2084.0,2074.0,1973.0,2004.0,1987.0,2014.0,2009.0,1911.0,1810.0,1701.0,1537.0,1385.0,1185.0,818.0,37.540163,126.825453,서울시 양천구 신월동 29-7,1499.5
382,남산1호터널,A-20,11,745.0,501.0,366.0,288.0,308.0,687.0,1593.0,1744.0,1946.0,1939.0,1828.0,1895.0,1804.0,1904.0,1796.0,1708.0,1609.0,1610.0,1582.0,1482.0,1483.0,1787.0,1540.0,1143.0,37.542406,127.001356,서울시 용산구 한남동 산 10-33,1387.0
394,남산2호터널,A-21,11,127.0,97.0,78.0,63.0,81.0,131.0,251.0,509.0,628.0,574.0,581.0,587.0,586.0,587.0,607.0,616.0,631.0,639.0,595.0,472.0,366.0,323.0,258.0,173.0,37.544301,126.989767,서울시 용산구 이태원동 262-35,398.3333333333333
406,남산3호터널,A-22,11,246.0,176.0,142.0,112.0,108.0,222.0,581.0,785.0,1008.0,994.0,957.0,958.0,902.0,999.0,1018.0,999.0,953.0,991.0,932.0,761.0,642.0,752.0,592.0,381.0,37.544496,126.98835,서울시 용산구 용산동2가 5-432,675.4583333333334
418,내부순환로,F-03,11,1296.0,961.0,742.0,686.0,1002.0,2479.0,3565.0,3628.0,3597.0,3698.0,3637.0,3655.0,3666.0,3638.0,3660.0,3711.0,3592.0,3550.0,3585.0,3579.0,3360.0,3263.0,2837.0,1865.0,37.608679,126.998878,서울시 성북구 정릉동 590-16,2885.5
430,노들로,D-41,11,583.0,420.0,305.0,257.0,311.0,551.0,1054.0,1483.0,1790.0,1624.0,1526.0,1458.0,1421.0,1543.0,1631.0,1691.0,1787.0,1739.0,1726.0,1559.0,1381.0,1262.0,1109.0,759.0,37.529712,126.909281,서울시 영등포구 당산동 364 ,1207.0833333333333
442,대사관로(삼청터널),A-04,11,37.0,25.0,15.0,11.0,19.0,52.0,187.0,393.0,397.0,400.0,351.0,333.0,311.0,330.0,340.0,387.0,450.0,459.0,385.0,305.0,233.0,188.0,130.0,70.0,37.596359,126.984209,서울시 성북구 성북동 산25-148,242.0
454,대학로(한국방송통신대학교),A-07,11,355.0,263.0,236.0,178.0,180.0,289.0,510.0,763.0,865.0,860.0,900.0,951.0,958.0,980.0,991.0,978.0,935.0,923.0,861.0,796.0,736.0,725.0,655.0,497.0,37.578188,127.002053,서울시 종로구 연건동 72-3,682.7083333333334
466,도봉로(도봉산역),B-01,11,381.0,294.0,228.0,234.0,296.0,551.0,915.0,1554.0,1803.0,1458.0,1340.0,1267.0,1273.0,1327.0,1361.0,1404.0,1568.0,1748.0,1727.0,1375.0,943.0,824.0,687.0,512.0,37.691792,127.045087,서울시 도봉구 도봉동 378-1,1044.5833333333333
478,도봉로(쌍문역),D-11,11,514.0,407.0,344.0,288.0,336.0,524.0,776.0,1051.0,1235.0,1172.0,1182.0,1130.0,1090.0,1127.0,1151.0,1170.0,1226.0,1196.0,1197.0,1059.0,963.0,847.0,772.0,609.0,37.645707,127.033171,서울시 도봉구 창동 650-46,890.25
490,동부간선도로,F-05,11,2120.0,1517.0,1128.0,966.0,1292.0,2674.0,3320.0,3261.0,3226.0,3244.0,3238.0,3484.0,3676.0,3649.0,3639.0,3636.0,3598.0,3244.0,3054.0,3114.0,3424.0,3522.0,3382.0,2802.0,37.568685,127.076023,서울시 동대문구 장안동 19-7,2925.4166666666665
502,동부간선도로(월계1교),D-12,11,1753.0,1274.0,985.0,893.0,1274.0,2728.0,2952.0,2835.0,2910.0,3068.0,3017.0,3016.0,3163.0,3216.0,3223.0,3255.0,3217.0,3081.0,3041.0,3071.0,3094.0,3078.0,2819.0,2314.0,37.631579,127.063432,서울시 노원구 월계동 247-17,2636.5416666666665
514,동소문로(길음교사거리),D-09,11,762.0,573.0,472.0,382.0,444.0,660.0,1002.0,1255.0,1404.0,1443.0,1489.0,1536.0,1505.0,1491.0,1492.0,1501.0,1439.0,1383.0,1309.0,1268.0,1287.0,1295.0,1182.0,936.0,37.599755,127.021693,서울시 성북구 돈암동 32-31,1146.25
526,동일로(군자교),D-07,11,808.0,694.0,529.0,417.0,437.0,737.0,1148.0,1259.0,1400.0,1467.0,1602.0,1704.0,1699.0,1739.0,1780.0,1828.0,1957.0,1997.0,1970.0,1768.0,1579.0,1485.0,1288.0,1020.0,37.553809,127.070504,서울시 성동구 송정동 83,1346.3333333333333
538,동일로(노원역),D-13,11,336.0,233.0,181.0,140.0,151.0,251.0,532.0,905.0,1052.0,1042.0,1083.0,1103.0,1064.0,1103.0,1141.0,1161.0,1185.0,1164.0,1119.0,946.0,761.0,674.0,568.0,411.0,37.652409,127.061032,서울시 노원구 상계동 729,762.75
550,동일로(의정부IC),B-02,11,523.0,381.0,291.0,278.0,402.0,946.0,1678.0,2650.0,2899.0,2572.0,2418.0,2305.0,2288.0,2376.0,2457.0,2588.0,2863.0,2895.0,2678.0,2317.0,1804.0,1473.0,1152.0,751.0,37.688571,127.055376,서울시 노원구 상계동 1311-3,1791.0416666666667
562,동작대교,C-10,11,379.0,249.0,182.0,134.0,155.0,369.0,809.0,1489.0,1881.0,1708.0,1561.0,1559.0,1475.0,1532.0,1635.0,1709.0,1903.0,1828.0,1561.0,1174.0,1016.0,975.0,758.0,532.0,37.509936,126.981814,서울시 용산구 이촌동 385,1107.2083333333333
574,동작대로(총신대입구역),D-31,11,1041.0,709.0,528.0,398.0,506.0,1102.0,1897.0,2218.0,2258.0,2357.0,2305.0,2224.0,2215.0,2209.0,2204.0,2215.0,2240.0,2096.0,2023.0,1995.0,1994.0,1970.0,1811.0,1401.0,37.494352,126.982914,서울시 서초구 방배동 1255,1746.5
586,동호대교,C-14,11,652.0,486.0,405.0,334.0,352.0,523.0,966.0,1916.0,2092.0,2015.0,1996.0,1919.0,1814.0,1835.0,1894.0,1899.0,2027.0,1868.0,1459.0,1478.0,1471.0,1352.0,1166.0,872.0,37.538207,127.019882,서울시 성동구 옥수동 86,1366.2916666666667
598,동호로(금호터널),D-03,11,571.0,430.0,353.0,297.0,318.0,471.0,879.0,1623.0,1709.0,1689.0,1738.0,1776.0,1738.0,1793.0,1835.0,1788.0,1796.0,1779.0,1672.0,1506.0,1366.0,1217.0,1035.0,760.0,37.551919,127.012977,서울시 중구 신당동 349-202,1255.7916666666667
610,동호로(장충체육관),A-10,11,351.0,273.0,224.0,156.0,173.0,256.0,419.0,922.0,1023.0,1204.0,1336.0,1342.0,1363.0,1444.0,1588.0,1639.0,1678.0,1726.0,1629.0,1281.0,1109.0,917.0,744.0,522.0,37.558563,127.007101,서울시 중구 장충동2가 200-99,971.625
622,뚝섬로(용비교),D-06,11,555.0,389.0,292.0,254.0,272.0,514.0,1116.0,1664.0,1951.0,2061.0,2054.0,1954.0,1863.0,1895.0,1926.0,1926.0,1803.0,1850.0,1807.0,1629.0,1383.0,1290.0,1100.0,765.0,37.542006,127.020674,서울시 성동구 옥수동 산 1-11 ,1346.375
634,마포대교,C-07,11,889.0,665.0,494.0,374.0,456.0,1035.0,2342.0,3201.0,3530.0,3364.0,3220.0,3153.0,2885.0,3103.0,3116.0,3176.0,3389.0,3802.0,3893.0,3231.0,2810.0,2520.0,2096.0,1323.0,37.533628,126.936512,서울시 영등포구 여의도동 85-2,2419.4583333333335
646,망우로(망우리공원),B-04,11,225.0,173.0,132.0,121.0,149.0,310.0,591.0,950.0,1109.0,954.0,855.0,836.0,813.0,831.0,879.0,931.0,1064.0,1186.0,1165.0,893.0,635.0,540.0,430.0,307.0,37.601476,127.115674,경기도 구리시 교문동 346-3,669.9583333333334
658,문성로(난곡터널),D-32,11,170.0,144.0,116.0,99.0,100.0,156.0,223.0,366.0,418.0,390.0,387.0,387.0,383.0,401.0,412.0,428.0,463.0,471.0,450.0,394.0,338.0,299.0,262.0,203.0,37.479046,126.924252,서울시 관악구 신림동 438-44,310.8333333333333
670,반포대교,C-11,11,856.0,585.0,431.0,347.0,346.0,728.0,1555.0,2479.0,2722.0,2685.0,2530.0,2583.0,2559.0,2530.0,2633.0,2645.0,2635.0,2409.0,2084.0,2136.0,2060.0,2041.0,1783.0,1256.0,37.514431,126.996663,서울시 서초구 반포동 647,1859.0833333333333
682,반포대로(서초역),D-37,11,626.0,423.0,298.0,242.0,233.0,549.0,1424.0,2150.0,2195.0,2428.0,2459.0,2434.0,2326.0,2396.0,2396.0,2298.0,2305.0,2169.0,2274.0,2180.0,1897.0,1762.0,1510.0,966.0,37.49624,127.005554,서울시 서초구 서초동 산 183-3 ,1664.1666666666667
694,반포대로(우면산터널),B-17,11,400.0,296.0,216.0,150.0,174.0,442.0,1217.0,1846.0,2050.0,2069.0,2087.0,2073.0,1975.0,1963.0,1972.0,2063.0,2102.0,2181.0,2171.0,1873.0,1468.0,1285.0,1051.0,627.0,37.483905,127.011416,서울시 서초구 서초동 1460-6,1406.2916666666667
706,밤고개로(세곡동사거리),B-13,11,123.0,90.0,73.0,64.0,100.0,240.0,585.0,1415.0,1657.0,1414.0,1287.0,1205.0,1104.0,1072.0,1121.0,1203.0,1458.0,1736.0,1666.0,1044.0,704.0,567.0,441.0,250.0,37.462416,127.107883,서울시 강남구 세곡동 130-6,859.125
718,백제고분로(종합운동장),D-44,11,344.0,253.0,206.0,155.0,149.0,273.0,501.0,919.0,1053.0,1079.0,1037.0,1029.0,1019.0,1041.0,1070.0,1101.0,1132.0,1192.0,1101.0,955.0,857.0,863.0,715.0,486.0,37.510639,127.078559,서울시 송파구 잠실동 124,772.0833333333334
730,북부간선도로(신내IC),B-07,11,1025.0,740.0,590.0,621.0,980.0,2417.0,2973.0,2993.0,2988.0,3089.0,3104.0,3110.0,3178.0,3197.0,3186.0,3178.0,3103.0,2919.0,2996.0,2856.0,2716.0,2508.0,2076.0,1438.0,37.613824,127.1087,서울시 중랑구 신내동 122-3,2415.875
742,북부간선로,F-04,11,1107.0,839.0,661.0,636.0,950.0,2239.0,2670.0,2713.0,2773.0,2765.0,2763.0,2757.0,2745.0,2752.0,2743.0,2748.0,2743.0,2623.0,2613.0,2633.0,2633.0,2542.0,2033.0,1505.0,37.608556,127.052577,서울시 성북구 장위동 65-175 ,2216.0833333333335
754,분당수서로,F-07,11,1395.0,980.0,731.0,621.0,827.0,2153.0,3402.0,3549.0,3655.0,3669.0,3599.0,3569.0,3596.0,3607.0,3545.0,3565.0,3600.0,3513.0,3492.0,3444.0,3420.0,3216.0,2792.0,2017.0,37.497648,127.087195,서울시 강남구 일원동 467-1,2831.5416666666665
766,분당수서로(성남시계),B-14,11,997.0,683.0,506.0,441.0,622.0,1649.0,2720.0,2738.0,2733.0,2702.0,2667.0,2658.0,2662.0,2717.0,2703.0,2785.0,2717.0,2614.0,2641.0,2623.0,2639.0,2458.0,2105.0,1487.0,37.471129,127.123078,서울시 송파구 장지동 698-5,2136.125
778,사직로(사직터널),A-02,11,643.0,514.0,395.0,297.0,315.0,589.0,1176.0,1875.0,2094.0,1969.0,1897.0,1934.0,1824.0,1889.0,1918.0,1932.0,1972.0,2037.0,1914.0,1646.0,1459.0,1390.0,1208.0,889.0,37.572298,126.962853,서울시 종로구 행촌동 1-186,1407.3333333333333
790,사평대로(고속터미널역),D-36,11,789.0,580.0,451.0,334.0,368.0,858.0,1578.0,2115.0,2147.0,2240.0,2235.0,2245.0,2230.0,2290.0,2296.0,2298.0,2243.0,2220.0,2274.0,2216.0,1992.0,1957.0,1685.0,1155.0,37.503742,127.007779,서울시 서초구 반포동 60-2,1699.8333333333333
802,새문안로(서울역사박물관),A-14,11,364.0,295.0,261.0,214.0,215.0,401.0,755.0,1119.0,1265.0,1230.0,1251.0,1301.0,1285.0,1366.0,1360.0,1361.0,1321.0,1358.0,1347.0,1161.0,1007.0,926.0,790.0,538.0,37.569776,126.971354,서울시 종로구 신문로2가 1-2,937.125
814,서강대교,C-06,11,309.0,228.0,168.0,147.0,174.0,296.0,623.0,1166.0,1335.0,1223.0,1140.0,1136.0,1047.0,1154.0,1167.0,1211.0,1330.0,1489.0,1501.0,1050.0,803.0,736.0,670.0,434.0,37.537537,126.925341,서울시 영등포구 여의도동 83-1,855.7083333333334
826,서부간선도로,F-09,11,1928.0,1421.0,1054.0,935.0,1348.0,2207.0,2436.0,2208.0,2063.0,2245.0,2445.0,2387.0,2384.0,2313.0,2290.0,2263.0,2201.0,1992.0,1954.0,2265.0,2612.0,2629.0,2564.0,2336.0,37.520965,126.881826,서울시 영등포구 문래동6가 52,2103.3333333333335
838,서빙고로(한남역),D-04,11,863.0,628.0,484.0,408.0,414.0,679.0,1278.0,1946.0,2358.0,2374.0,2411.0,2446.0,2438.0,2466.0,2519.0,2603.0,2596.0,2659.0,2537.0,2208.0,1990.0,1904.0,1647.0,1172.0,37.527197,127.004697,서울시 용산구 한남동 542-10,1792.8333333333333
850,서소문로(시청역),A-16,11,396.0,321.0,272.0,203.0,215.0,412.0,803.0,1025.0,1123.0,1110.0,1123.0,1148.0,1112.0,1157.0,1163.0,1198.0,1240.0,1292.0,1193.0,1100.0,942.0,914.0,805.0,593.0,37.562819,126.972716,서울시 중구 서소문동 72-2,869.1666666666666
862,서오릉로(고양시계),B-34,11,322.0,216.0,180.0,164.0,218.0,403.0,796.0,1181.0,1307.0,1183.0,1154.0,1150.0,1183.0,1215.0,1224.0,1260.0,1320.0,1399.0,1363.0,1154.0,864.0,761.0,608.0,403.0,37.617883,126.90626,서울시 은평구 구산동 304-15,876.1666666666666
874,서하남로(서하남IC),B-08,11,530.0,403.0,307.0,315.0,407.0,908.0,1732.0,2768.0,2967.0,2948.0,2888.0,2780.0,2824.0,2997.0,3064.0,3165.0,3280.0,3469.0,3344.0,3130.0,2451.0,1793.0,1305.0,816.0,37.516777,127.146728,경기도 하남시 감북동 442-15,2107.9583333333335
886,성산대교,C-04,11,1752.0,1231.0,912.0,797.0,1185.0,2686.0,3665.0,3854.0,4116.0,4158.0,3964.0,3882.0,3923.0,3902.0,3874.0,4004.0,4050.0,3933.0,4009.0,3761.0,3603.0,3425.0,3161.0,2344.0,37.55268,126.891564,서울시 마포구 망원동 306-53,3174.625
898,성산로(금화터널),A-01,11,,,,,,,,,,,,,,,,,,,,,,,,,37.568588,126.948436,서울시 서대문구 신촌동 1-142,
910,성산로(연희IC),D-16,11,569.0,433.0,332.0,273.0,402.0,962.0,1840.0,1967.0,1698.0,2127.0,2170.0,2081.0,1977.0,2125.0,2010.0,1989.0,1892.0,1926.0,1874.0,1521.0,1304.0,1261.0,1095.0,828.0,37.563506,126.9301,서울시 서대문구 연희동 341-41,1444.0
922,성수대교,C-15,11,1845.0,1393.0,1094.0,912.0,1074.0,1885.0,2743.0,3196.0,3494.0,3304.0,3201.0,3112.0,3157.0,3292.0,3211.0,3332.0,3479.0,3455.0,3350.0,2937.0,2912.0,3022.0,2957.0,2395.0,37.536768,127.034972,서울시 성동구 옥수동 484,2698.0
934,세종대로(서울역),A-13,11,352.0,226.0,179.0,110.0,191.0,440.0,807.0,1277.0,1482.0,1515.0,1539.0,1622.0,1582.0,1648.0,1662.0,1640.0,1622.0,1633.0,1527.0,1251.0,1080.0,946.0,829.0,622.0,37.558061,126.973439,서울시 중구 남대문로5가 84-15,1074.25
946,세종대로(시청역2),A-17,11,387.0,255.0,184.0,112.0,148.0,359.0,907.0,1561.0,1911.0,1908.0,1790.0,1859.0,1701.0,1788.0,1871.0,1823.0,1896.0,1891.0,1844.0,1467.0,1282.0,1210.0,958.0,646.0,37.567496,126.977208,서울시 중구 태평로1가 61-29,1239.9166666666667
958,소월로(회현역),A-23,11,29.0,23.0,17.0,14.0,13.0,36.0,78.0,299.0,401.0,355.0,306.0,328.0,302.0,341.0,361.0,353.0,373.0,401.0,377.0,271.0,181.0,113.0,78.0,49.0,37.557044,126.976362,서울시 중구 남창동 217-1,212.45833333333334
970,소파로(숭의여자대학교),A-24,11,40.0,27.0,21.0,17.0,17.0,26.0,53.0,171.0,368.0,271.0,264.0,296.0,325.0,376.0,377.0,393.0,369.0,359.0,349.0,248.0,186.0,147.0,97.0,59.0,37.554896,126.983521,서울시 중구 회현동1가 산1-16,202.33333333333334
982,송파대로(복정역),B-12,11,514.0,404.0,295.0,243.0,342.0,665.0,1167.0,1718.0,1765.0,1752.0,1709.0,1615.0,1595.0,1589.0,1644.0,1701.0,1822.0,1917.0,1817.0,1359.0,1219.0,1166.0,973.0,691.0,37.468797,127.126419,서울시 송파구 장지동 697-14,1236.75
994,송파대로(송파역),D-45,11,786.0,608.0,453.0,375.0,420.0,629.0,1197.0,1909.0,2138.0,2128.0,2126.0,2123.0,2048.0,2076.0,2079.0,2144.0,2209.0,2221.0,2198.0,1963.0,1748.0,1578.0,1390.0,1040.0,37.500537,127.111445,서울시 송파구 송파동 2-15 ,1566.0833333333333
1006,수색로(고양시계),B-35,11,498.0,269.0,190.0,183.0,263.0,535.0,866.0,857.0,1059.0,1128.0,1289.0,1373.0,1398.0,1378.0,1376.0,1455.0,1565.0,1611.0,1674.0,1544.0,1180.0,1040.0,902.0,658.0,37.587472,126.886414,서울시 은평구 수색동 281-12,1012.125
1018,시흥대로(구로디지털단지역),D-26,11,633.0,470.0,365.0,294.0,445.0,889.0,1186.0,1758.0,1926.0,1908.0,1919.0,1865.0,1859.0,1835.0,1913.0,1916.0,2049.0,2105.0,2025.0,1764.0,1543.0,1375.0,1130.0,824.0,37.486787,126.904415,서울시 영등포구 대림동 993-57,1416.5
1030,시흥대로(석수역),B-18,11,650.0,416.0,294.0,225.0,430.0,1094.0,1730.0,2183.0,2128.0,2237.0,2287.0,2209.0,2138.0,2181.0,2230.0,2339.0,2422.0,2512.0,2545.0,2288.0,1843.0,1558.0,1208.0,838.0,37.437013,126.902811,서울시 금천구 시흥동 1001-34,1666.0416666666667
1042,시흥대로(시흥IC),D-24,11,574.0,447.0,336.0,279.0,478.0,1102.0,1393.0,2125.0,2318.0,2244.0,2178.0,2083.0,2001.0,2067.0,2113.0,2143.0,2202.0,2293.0,2173.0,1955.0,1698.0,1438.0,1126.0,819.0,37.477189,126.898532,서울시 금천구 독산동 142-7,1566.0416666666667
1054,신정로(작동터널),B-30,11,291.0,213.0,162.0,133.0,172.0,408.0,788.0,1257.0,1318.0,1199.0,1156.0,1167.0,1172.0,1205.0,1229.0,1264.0,1383.0,1512.0,1492.0,1168.0,871.0,725.0,551.0,406.0,37.506104,126.824602,서울시 구로구 궁동 산 1-94,885.0833333333334
1066,아차산로(워커힐),B-03,11,124.0,100.0,81.0,58.0,70.0,196.0,504.0,954.0,940.0,923.0,851.0,823.0,730.0,714.0,788.0,804.0,872.0,1018.0,1082.0,701.0,570.0,503.0,365.0,234.0,37.550897,127.108955,서울시 광진구 광장동 145-2,583.5416666666666
1078,양녕로(상도터널),D-30,11,931.0,710.0,520.0,386.0,443.0,832.0,1432.0,1749.0,1654.0,1858.0,1828.0,1774.0,1761.0,1783.0,1768.0,1788.0,1840.0,1792.0,1706.0,1690.0,1676.0,1673.0,1535.0,1177.0,37.511204,126.953469,서울시 동작구 본동 136-4,1429.4166666666667
1090,양재대로(양재IC),B-16,11,1251.0,850.0,617.0,509.0,682.0,1769.0,3344.0,4209.0,4180.0,4151.0,4092.0,3966.0,3989.0,4130.0,4188.0,4374.0,4766.0,4829.0,4393.0,3848.0,3326.0,3083.0,2598.0,1839.0,37.460089,127.030175,경기도 과천시 주암동 89-18,3124.2916666666665
1102,양화대교,C-05,11,1720.0,1461.0,1175.0,922.0,948.0,1678.0,2802.0,3292.0,3640.0,3589.0,3588.0,3500.0,3258.0,3296.0,3380.0,3389.0,3547.0,3671.0,3819.0,3315.0,2981.0,2849.0,2654.0,2140.0,37.542913,126.903766,서울시 마포구 합정동 351-4,2775.5833333333335
1114,언주로(매봉터널),D-38,11,559.0,405.0,297.0,212.0,216.0,385.0,775.0,1298.0,1417.0,1501.0,1479.0,1457.0,1514.0,1545.0,1591.0,1583.0,1627.0,1670.0,1721.0,1605.0,1493.0,1426.0,1275.0,775.0,37.492009,127.047969,서울시 강남구 도곡동 산 6-13,1159.4166666666667
1126,여의대방로(여의교),D-29,11,843.0,662.0,485.0,369.0,438.0,870.0,1473.0,2175.0,2469.0,2353.0,2183.0,2144.0,2060.0,2174.0,2189.0,2221.0,2336.0,2335.0,2185.0,1952.0,1769.0,1672.0,1477.0,1103.0,37.516852,126.928374,서울시 영등포구 여의도동 5-7,1664.0416666666667
1138,연희로(연희IC),D-17,11,,,,,,,,,,,,,,,,,,,,,,,,,37.566264,126.930537,서울시 서대문구 연희동 187-58,
1150,영동대교,C-16,11,1274.0,1042.0,836.0,659.0,644.0,1064.0,1904.0,2542.0,3021.0,2974.0,3074.0,3143.0,3098.0,3218.0,3361.0,3535.0,3689.0,3526.0,3536.0,3298.0,2985.0,2806.0,2519.0,1685.0,37.530295,127.057339,서울시 광진구 자양동 825-1,2476.375
1162,영등포로(오목교),D-25,11,429.0,340.0,262.0,211.0,237.0,450.0,802.0,1322.0,1466.0,1567.0,1545.0,1524.0,1484.0,1544.0,1590.0,1623.0,1674.0,1685.0,1585.0,1356.0,1221.0,1137.0,928.0,580.0,37.523175,126.883725,서울시 영등포구 양평동2가 20-1,1106.75
1174,오리로(광명시계),B-20,11,213.0,161.0,116.0,101.0,149.0,275.0,476.0,676.0,756.0,745.0,728.0,699.0,692.0,710.0,734.0,752.0,796.0,776.0,747.0,657.0,532.0,449.0,346.0,258.0,37.482607,126.843109,서울시 구로구 천왕동 10-1,522.6666666666666
1186,오정로(부천시계),B-26,11,116.0,83.0,71.0,76.0,175.0,400.0,561.0,786.0,748.0,641.0,607.0,625.0,611.0,629.0,633.0,662.0,783.0,866.0,801.0,631.0,429.0,373.0,320.0,204.0,37.542779,126.809411,서울시 강서구 공항동 406-13,492.9583333333333
1198,올림픽대교,C-19,11,348.0,223.0,175.0,157.0,222.0,588.0,1403.0,2044.0,2162.0,2002.0,1998.0,1842.0,1767.0,1915.0,2012.0,2120.0,2276.0,2459.0,2425.0,2063.0,1448.0,1189.0,969.0,583.0,37.533789,127.10412,서울시 송파구 신천동 253,1432.9166666666667
1210,올림픽대로,F-01,11,3268.0,2315.0,1766.0,1561.0,2106.0,4315.0,5908.0,6343.0,6380.0,6317.0,6280.0,6448.0,6538.0,6557.0,6488.0,6373.0,6089.0,5839.0,5707.0,5775.0,5975.0,5990.0,5695.0,4536.0,37.506002,126.97375,서울시 동작구 동작동 322-3,5190.375
1222,올림픽대로(강일IC),B-10,11,1610.0,1091.0,814.0,741.0,1096.0,2855.0,5048.0,5347.0,5675.0,5929.0,5925.0,5518.0,5537.0,5822.0,5877.0,5913.0,5935.0,5867.0,5733.0,5479.0,4939.0,4245.0,3544.0,2404.0,37.569891,127.157292,서울시 강동구 고덕동 365-3,4289.333333333333
1234,올림픽대로(개화IC),B-32,11,1588.0,1169.0,977.0,918.0,1331.0,3086.0,4537.0,4055.0,4117.0,4265.0,4512.0,4609.0,4665.0,4769.0,4856.0,4871.0,4891.0,4983.0,5194.0,4812.0,4197.0,3676.0,3147.0,2300.0,37.587814,126.812795,서울 강서구 개화동 280-2,3646.875
1246,원효대교,C-08,11,363.0,295.0,227.0,163.0,198.0,488.0,898.0,1586.0,1797.0,1672.0,1645.0,1572.0,1429.0,1527.0,1557.0,1578.0,1651.0,1641.0,1525.0,1198.0,1008.0,926.0,785.0,543.0,37.526745,126.945137,서울시 영등포구 여의도동 87-2,1094.6666666666667
1258,율곡로(안국역),A-05,11,572.0,429.0,342.0,265.0,318.0,484.0,850.0,1264.0,1379.0,1398.0,1454.0,1503.0,1502.0,1515.0,1510.0,1510.0,1425.0,1394.0,1270.0,1232.0,1138.0,1129.0,1003.0,761.0,37.576,126.984342,서울시 종로구 경운동 90-4,1068.625
1270,을지로(을지로3가역),A-18,11,281.0,229.0,212.0,172.0,180.0,238.0,427.0,750.0,831.0,843.0,894.0,923.0,920.0,924.0,935.0,925.0,911.0,870.0,779.0,770.0,662.0,562.0,477.0,381.0,37.566114,126.989326,서울시 중구 을지로2가 149-10,629.0
1282,자하문로(자하문터널),A-03,11,193.0,152.0,109.0,79.0,91.0,195.0,559.0,782.0,804.0,840.0,824.0,719.0,709.0,737.0,780.0,817.0,862.0,881.0,850.0,736.0,576.0,535.0,441.0,282.0,37.588831,126.968548,서울시 종로구 청운동 24-6,564.7083333333334
1294,잠수교,C-12,11,165.0,107.0,82.0,60.0,63.0,171.0,383.0,608.0,649.0,691.0,668.0,624.0,595.0,626.0,665.0,692.0,689.0,722.0,646.0,575.0,465.0,456.0,415.0,276.0,37.50826,126.999744,서울시 서초구 잠원동 114,462.2083333333333
1306,잠실대교,C-18,11,958.0,667.0,488.0,395.0,443.0,855.0,1853.0,2445.0,2627.0,2495.0,2510.0,2518.0,2418.0,2441.0,2551.0,2726.0,2780.0,2911.0,3068.0,2684.0,2313.0,2194.0,1894.0,1425.0,37.523821,127.092036,서울시 송파구 신천동 245,1985.7916666666667
1318,장충단로(장충단공원),A-11,11,347.0,266.0,210.0,165.0,204.0,321.0,597.0,1101.0,1320.0,1365.0,1363.0,1432.0,1468.0,1477.0,1495.0,1494.0,1520.0,1486.0,1406.0,1151.0,945.0,826.0,691.0,489.0,37.556889,127.004655,서울시 중구 장충동2가 산6-6,964.125
1330,종로(동묘앞역),A-08,11,613.0,504.0,458.0,387.0,423.0,629.0,945.0,1156.0,1272.0,1345.0,1400.0,1341.0,1360.0,1340.0,1358.0,1368.0,1348.0,1277.0,1293.0,1285.0,1202.0,1104.0,985.0,785.0,37.573262,127.017112,서울시 종로구 숭인동 273,1049.0833333333333
1342,종로(종로3가역),A-15,11,403.0,331.0,315.0,260.0,251.0,421.0,731.0,1064.0,1127.0,1165.0,1170.0,1189.0,1184.0,1177.0,1189.0,1174.0,1137.0,1113.0,1081.0,1005.0,907.0,823.0,702.0,532.0,37.570216,126.990832,서울시 종로구 종로3가 137-3,852.125
1354,증산로(디지털미디어시티역),D-14,11,669.0,506.0,413.0,416.0,655.0,1371.0,1872.0,1667.0,1720.0,1951.0,1923.0,1805.0,1812.0,1870.0,1821.0,1850.0,1891.0,1682.0,1523.0,1380.0,1371.0,1322.0,1182.0,867.0,37.579684,126.905124,서울시 은평구 증산동 199-12,1397.4583333333333
1366,진흥로(구기터널),D-01,11,298.0,197.0,142.0,117.0,150.0,339.0,870.0,1194.0,1230.0,1284.0,1260.0,1177.0,1128.0,1155.0,1197.0,1258.0,1399.0,1437.0,1389.0,1173.0,910.0,812.0,635.0,424.0,37.608686,126.955198,서울시 종로구 구기동 244-7,882.2916666666666
1378,창경궁로(서울여자대학교),A-06,11,437.0,337.0,277.0,208.0,257.0,451.0,798.0,1184.0,1254.0,1177.0,1089.0,1118.0,1057.0,1050.0,1066.0,1065.0,1060.0,1019.0,921.0,876.0,878.0,884.0,795.0,592.0,37.582526,126.998011,서울시 종로구 명륜4가 197-5,827.0833333333334
1390,천호대교,C-20,11,735.0,513.0,393.0,331.0,387.0,760.0,1446.0,1877.0,2012.0,1963.0,2000.0,1966.0,1891.0,1857.0,1922.0,1981.0,2046.0,2048.0,2071.0,1916.0,1659.0,1404.0,1276.0,960.0,37.542673,127.112883,서울시 송파구 풍납동 383,1475.5833333333333
1402,천호대로(군자교),D-05,11,730.0,559.0,457.0,400.0,436.0,730.0,1255.0,1947.0,2406.0,2335.0,2296.0,2274.0,2200.0,2268.0,2358.0,2384.0,2459.0,2488.0,2455.0,2198.0,1804.0,1542.0,1334.0,980.0,37.560716,127.068571,서울시 성동구 용답동 224-4,1678.9583333333333
1414,천호대로(상일IC),B-09,11,582.0,396.0,289.0,259.0,374.0,902.0,1822.0,2785.0,3253.0,2935.0,2930.0,2807.0,2679.0,2794.0,2894.0,3030.0,3251.0,3468.0,3368.0,2678.0,1982.0,1610.0,1294.0,818.0,37.547459,127.175222,서울시 강동구 상일동 12-2,2050.0
1426,철산교(광명시계),B-23,11,405.0,295.0,217.0,173.0,266.0,566.0,670.0,881.0,1015.0,1028.0,1040.0,1025.0,991.0,1059.0,1052.0,1015.0,953.0,869.0,826.0,916.0,904.0,867.0,703.0,539.0,37.474933,126.878154,서울시 금천구 가산동 614-72,761.4583333333334
1438,청담대교,C-17,11,1110.0,764.0,570.0,534.0,742.0,1930.0,2966.0,3180.0,3330.0,3367.0,3356.0,3373.0,3285.0,3275.0,3324.0,3445.0,3460.0,3312.0,3248.0,3225.0,3218.0,3026.0,2583.0,1673.0,37.525513,127.064067,서울시 강남구 청담동 345,2595.6666666666665
1450,칠패로(숭례문),A-19,11,137.0,106.0,83.0,63.0,60.0,112.0,187.0,309.0,396.0,404.0,429.0,461.0,430.0,460.0,477.0,484.0,494.0,487.0,469.0,404.0,355.0,312.0,278.0,212.0,37.559593,126.972518,서울시 중구 봉래동1가 47-2,317.0416666666667
1462,테헤란로(선릉역),D-42,11,774.0,679.0,574.0,442.0,378.0,503.0,883.0,1467.0,1685.0,1815.0,1839.0,1878.0,1793.0,1920.0,1894.0,1924.0,1835.0,1735.0,1524.0,1542.0,1461.0,1542.0,1355.0,945.0,37.505483,127.052134,서울시 강남구 삼성동 172-66,1349.4583333333333
1474,통일로(고양시계),B-33,11,446.0,254.0,180.0,155.0,243.0,516.0,944.0,1340.0,1419.0,1432.0,1442.0,1433.0,1423.0,1484.0,1502.0,1534.0,1527.0,1451.0,1386.0,1257.0,1057.0,966.0,792.0,574.0,37.644685,126.91127,경기 고양시 덕양구 동산동 2-13,1031.5416666666667
1486,통일로(산골고개정류장),D-15,11,917.0,696.0,525.0,432.0,618.0,1237.0,1648.0,1559.0,1562.0,1701.0,1718.0,1713.0,1746.0,1721.0,1764.0,1796.0,1849.0,1794.0,1753.0,1654.0,1633.0,1650.0,1496.0,1173.0,37.594931,126.940246,서울시 서대문구 홍은동 137-8,1431.4583333333333
1498,퇴계로(신당역),A-09,11,,,,,,,,,,,,,,,,,,,,,,,,,37.565712,127.020912,서울시 중구 황학동 710,
1510,퇴계로(회현역),A-12,11,252.0,192.0,175.0,155.0,162.0,333.0,585.0,752.0,867.0,855.0,846.0,877.0,860.0,870.0,863.0,859.0,821.0,792.0,761.0,672.0,611.0,582.0,519.0,360.0,37.557432,126.976486,서울시 중구 남창동 236-2,609.2083333333334
1522,평창문화로(북악터널),D-02,11,310.0,195.0,136.0,113.0,153.0,336.0,792.0,1109.0,1179.0,1211.0,1203.0,1200.0,1188.0,1206.0,1277.0,1354.0,1464.0,1453.0,1401.0,1100.0,894.0,808.0,639.0,439.0,37.611547,126.979308,서울시 종로구 평창동 2-15,881.6666666666666
1534,한강대교,C-09,11,1021.0,774.0,569.0,442.0,507.0,1024.0,1872.0,2342.0,2522.0,2530.0,2499.0,2407.0,2321.0,2367.0,2398.0,2504.0,2686.0,2878.0,2866.0,2521.0,2143.0,2086.0,1832.0,1389.0,37.51816,126.959472,서울시 용산구 이촌동 302-211,1937.5
1546,한남대교,C-13,11,2189.0,1526.0,1207.0,1004.0,1163.0,2435.0,3925.0,4817.0,5238.0,5239.0,5058.0,4961.0,4729.0,4935.0,5020.0,4984.0,4910.0,4598.0,4423.0,4142.0,4011.0,4392.0,4186.0,3168.0,37.526946,127.01319,서울시 강남구 신사동 490,3844.1666666666665
1558,행주대교,C-01,11,520.0,377.0,308.0,291.0,454.0,1039.0,2172.0,2788.0,2829.0,2840.0,2874.0,2783.0,2628.0,2698.0,2872.0,3034.0,3507.0,3663.0,3636.0,2803.0,1913.0,1574.0,1302.0,840.0,37.598121,126.809931,서울시 강서구 개화동 652,2072.7083333333335
1570,헌릉로(세곡동사거리),D-40,11,293.0,186.0,136.0,109.0,160.0,469.0,1084.0,1666.0,1814.0,1898.0,1884.0,1828.0,1712.0,1749.0,1839.0,1957.0,2170.0,2208.0,2029.0,1590.0,1215.0,1015.0,812.0,485.0,37.465092,127.105635,서울시 강남구 세곡동 산 30-4,1262.8333333333333
1582,화곡로(화곡로입구),B-27,11,308.0,228.0,183.0,182.0,239.0,552.0,859.0,1004.0,1048.0,935.0,984.0,965.0,970.0,1003.0,993.0,1014.0,1028.0,1007.0,962.0,852.0,769.0,690.0,594.0,421.0,37.539227,126.823123,서울시 양천구 신월동 37-1,741.25
1594,화랑로(상월곡역),D-08,11,859.0,648.0,523.0,471.0,617.0,1172.0,1405.0,1540.0,1833.0,1775.0,1759.0,1795.0,1777.0,1768.0,1756.0,1744.0,1741.0,1682.0,1729.0,1734.0,1659.0,1612.0,1423.0,1109.0,37.603932,127.044044,서울시 성북구 하월곡동 37-7,1422.125
1606,화랑로(조선왕릉),B-06,11,383.0,278.0,210.0,186.0,243.0,494.0,961.0,1429.0,1583.0,1485.0,1392.0,1295.0,1297.0,1303.0,1375.0,1418.0,1492.0,1485.0,1462.0,1230.0,981.0,876.0,733.0,498.0,37.630725,127.098984,서울시 노원구 공릉동산223-19,1003.7083333333334
1618,화랑로(화랑대역),D-10,11,761.0,532.0,393.0,363.0,492.0,1017.0,1461.0,1617.0,1671.0,1793.0,1938.0,1846.0,1848.0,1891.0,1925.0,1893.0,1864.0,1815.0,1783.0,1756.0,1586.0,1481.0,1312.0,985.0,37.619936,127.08295,"서울시, 노원구 공릉동 280-2",1417.625
