,지점명,지점번호,월,0시,1시,2시,3시,4시,5시,6시,7시,8시,9시,10시,11시,12시,13시,14시,15시,16시,17시,18시,19시,20시,21시,22시,23시,위도,경도,주소,하루평균
2,가양대교,C-03,3,905.0,635.0,475.0,460.0,627.0,1390.0,2369.0,2813.0,3095.0,3121.0,3077.0,3076.0,3050.0,3144.0,3152.0,3239.0,3428.0,3502.0,3049.0,2570.0,2505.0,2484.0,2310.0,1404.0,37.571567,126.862726,서울시 마포구 상암동 506-68,2328.3333333333335
14,강남대로(강남역-신분당),D-35,3,518.0,324.0,221.0,173.0,167.0,302.0,711.0,1204.0,1349.0,1340.0,1394.0,1468.0,1445.0,1515.0,1527.0,1583.0,1606.0,1607.0,1600.0,1456.0,1224.0,1120.0,1010.0,730.0,37.49059,127.03116,서울시 강남구 역삼동 858,1066.4166666666667
26,강남대로(신사역),D-43,3,754.0,534.0,392.0,309.0,310.0,495.0,888.0,1379.0,1502.0,1597.0,1626.0,1594.0,1616.0,1598.0,1733.0,1762.0,1811.0,1844.0,1871.0,1796.0,1636.0,1619.0,1517.0,1058.0,37.514859,127.020098,서울시 강남구 논현동 17-5,1301.7083333333333
38,강남순환로,F-08,3,414.0,245.0,169.0,140.0,212.0,755.0,2037.0,2707.0,2668.0,2539.0,2417.0,2283.0,2314.0,2469.0,2475.0,2525.0,2816.0,3157.0,2888.0,2375.0,1823.0,1579.0,1393.0,814.0,37.449096,126.926169,서울시 금천구 시흥동 산 93-1,1800.5833333333333
50,강변북로,F-02,3,2389.0,1582.0,1165.0,1054.0,1491.0,3574.0,5644.0,6114.0,6152.0,6406.0,6437.0,6322.0,6265.0,6278.0,6207.0,6145.0,5731.0,4841.0,4425.0,4733.0,5539.0,5942.0,5597.0,3637.0,37.517004,126.973968,서울시 용산구 이촌동 302-131,4736.25
62,강변북로(구리시계),B-37,3,768.0,495.0,378.0,351.0,483.0,1361.0,3017.0,3406.0,3719.0,3762.0,3893.0,3890.0,3800.0,3904.0,3956.0,4103.0,4330.0,4323.0,4014.0,3561.0,3049.0,2742.0,2448.0,1387.0,37.558389,127.114274,경기도 구리시 아천동 390,2797.5
74,강변북로(난지한강공원),B-36,3,2197.0,1451.0,1120.0,1093.0,1546.0,3668.0,5402.0,5684.0,5760.0,5778.0,6063.0,6332.0,6569.0,6622.0,6645.0,6637.0,6785.0,6745.0,6520.0,6320.0,6101.0,5873.0,5488.0,3587.0,37.570903,126.872321,서울시 마포구 상암동 481-226,4999.416666666667
86,강서로(화곡터널),D-20,3,384.0,268.0,202.0,163.0,221.0,360.0,607.0,795.0,835.0,932.0,905.0,888.0,860.0,904.0,910.0,938.0,940.0,950.0,948.0,880.0,844.0,835.0,794.0,546.0,37.534375,126.845094,서울시 강서구 화곡동 산172-2,704.5416666666666
98,개봉로(개봉교),B-21,3,202.0,133.0,104.0,96.0,153.0,340.0,481.0,569.0,576.0,621.0,648.0,648.0,633.0,659.0,671.0,693.0,711.0,705.0,686.0,615.0,542.0,496.0,426.0,300.0,37.486181,126.8565,서울시 구로구 개봉동 403-97,487.8333333333333
110,경부고속도로,F-06,3,1995.0,1329.0,995.0,934.0,1343.0,3270.0,5328.0,4877.0,4932.0,4956.0,4814.0,4794.0,4781.0,4771.0,4785.0,4826.0,4776.0,4507.0,4377.0,4499.0,4596.0,5315.0,4915.0,3210.0,37.493135,127.022533,서울시 서초구 서초동 1748-26 ,3955.2083333333335
122,경부고속도로(양재IC),B-11,3,1700.0,1118.0,824.0,755.0,1115.0,2888.0,5343.0,4828.0,4886.0,4722.0,4649.0,4569.0,4551.0,4491.0,4499.0,4657.0,4812.0,4930.0,4801.0,4675.0,4608.0,5017.0,4544.0,2901.0,37.465083,127.038643,서울시 서초구 양재동 227-4,3828.4583333333335
134,경인고속국도(신월IC),B-28,3,1545.0,1020.0,776.0,728.0,1093.0,2943.0,4065.0,4363.0,4334.0,4304.0,4273.0,4279.0,4361.0,4410.0,4466.0,4531.0,4718.0,4856.0,4665.0,4295.0,3984.0,3850.0,3478.0,2419.0,37.524875,126.831933,서울시 양천구 신월동 904-1,3489.8333333333335
146,경인로(거리공원입구교차로),D-23,3,355.0,221.0,151.0,138.0,268.0,813.0,1184.0,1277.0,1325.0,1326.0,1356.0,1351.0,1314.0,1322.0,1326.0,1301.0,1356.0,1362.0,1307.0,1177.0,1008.0,993.0,790.0,555.0,37.50644,126.884382,서울시 구로구 신도림동 435-17,982.3333333333334
158,경인로(서울교),D-28,3,621.0,411.0,284.0,230.0,322.0,704.0,1511.0,2413.0,2612.0,2539.0,2471.0,2469.0,2348.0,2519.0,2538.0,2554.0,2602.0,2712.0,2596.0,2230.0,1992.0,1860.0,1536.0,1009.0,37.52019,126.914903,서울시 영등포구 영등포동2가 97-1,1795.125
170,경인로(오류IC),D-22,3,459.0,281.0,192.0,170.0,310.0,679.0,1026.0,1150.0,1081.0,1126.0,1205.0,1202.0,1218.0,1241.0,1270.0,1237.0,1324.0,1385.0,1354.0,1207.0,1093.0,1033.0,938.0,678.0,37.498246,126.851219,서울시 구로구 개봉동 80-22,952.4583333333334
182,경인로(유한공고),B-29,3,297.0,189.0,126.0,101.0,192.0,431.0,641.0,850.0,915.0,850.0,790.0,771.0,788.0,788.0,783.0,805.0,889.0,977.0,971.0,818.0,711.0,656.0,596.0,424.0,37.488614,126.822789,경기도 부천시 소사구 괴안동 206-5,639.9583333333334
194,경춘북로(중랑경찰서),B-05,3,259.0,167.0,124.0,116.0,208.0,487.0,955.0,1345.0,1526.0,1394.0,1244.0,1205.0,1225.0,1295.0,1299.0,1315.0,1451.0,1601.0,1594.0,1300.0,971.0,848.0,743.0,428.0,37.619942,127.105325,서울시 중랑구 신내동 271-1,962.5
206,공항대로(발산역),D-21,3,345.0,230.0,175.0,155.0,248.0,434.0,720.0,1183.0,1394.0,1351.0,1345.0,1322.0,1300.0,1368.0,1393.0,1394.0,1419.0,1424.0,1412.0,1176.0,988.0,872.0,776.0,485.0,37.559251,126.831069,서울시 강서구 마곡동 727-1154,954.5416666666666
218,과천대로(남태령역),B-15,3,449.0,246.0,161.0,149.0,236.0,681.0,1526.0,1852.0,1865.0,1765.0,1716.0,1648.0,1663.0,1723.0,1678.0,1687.0,1804.0,1848.0,1781.0,1527.0,1395.0,1312.0,1152.0,767.0,37.463288,126.988151,서울시 서초구 방배동 산190-1 ,1276.2916666666667
230,광명대교(광명시계),B-22,3,161.0,105.0,72.0,65.0,128.0,281.0,463.0,800.0,753.0,776.0,813.0,690.0,640.0,674.0,673.0,684.0,719.0,769.0,774.0,629.0,477.0,428.0,364.0,239.0,37.485044,126.873297,서울시 금천구 가산동 535-121,507.375
242,광진교,C-21,3,92.0,65.0,47.0,39.0,48.0,104.0,212.0,394.0,575.0,483.0,466.0,449.0,416.0,419.0,451.0,476.0,523.0,617.0,656.0,466.0,306.0,265.0,211.0,132.0,37.54412,127.115274,서울시 강동구 천호동 484-9,329.6666666666667
254,국회대로(여의2교),D-27,3,483.0,305.0,201.0,163.0,212.0,349.0,755.0,1346.0,1637.0,1451.0,1416.0,1499.0,1441.0,1545.0,1604.0,1625.0,1635.0,1609.0,1531.0,1326.0,1286.0,1254.0,1055.0,763.0,37.526003,126.910953,서울시 영등포구 영등포동7가 94-411,1103.7916666666667
266,금오로(광명시계),B-19,3,42.0,24.0,17.0,19.0,38.0,119.0,210.0,308.0,314.0,316.0,279.0,275.0,268.0,292.0,309.0,312.0,332.0,374.0,344.0,280.0,185.0,134.0,106.0,66.0,37.482431,126.841891,서울시 구로구 천왕동 24-2,206.79166666666666
278,금천교(광명시계),B-24,3,299.0,195.0,141.0,132.0,215.0,571.0,1007.0,1485.0,1541.0,1526.0,1538.0,1521.0,1428.0,1557.0,1563.0,1594.0,1657.0,1647.0,1529.0,1339.0,1068.0,900.0,762.0,478.0,37.465046,126.884245,서울시 금천구 독산동 668-54,1070.5416666666667
290,금하로(광명시계),B-25,3,181.0,104.0,74.0,69.0,127.0,288.0,579.0,926.0,936.0,955.0,904.0,861.0,849.0,897.0,917.0,959.0,1000.0,1074.0,1052.0,868.0,678.0,579.0,448.0,274.0,37.4514,126.891627,경기도 광명시 소하동 31-25,649.9583333333334
302,김포대로(개화교),B-31,3,253.0,152.0,111.0,111.0,204.0,515.0,1245.0,1555.0,1545.0,1613.0,1409.0,1256.0,1227.0,1267.0,1290.0,1333.0,1448.0,1700.0,1667.0,1217.0,948.0,843.0,755.0,432.0,37.585313,126.795571,경기도 김포시 고촌읍 전호리 436-3,1004.0
314,남부순환로(낙성대역),D-33,3,1124.0,747.0,544.0,437.0,523.0,990.0,1598.0,2256.0,2377.0,2385.0,2318.0,2247.0,2228.0,2297.0,2355.0,2412.0,2520.0,2514.0,2373.0,2206.0,2013.0,2018.0,1920.0,1488.0,37.477711,126.962242,서울시 관악구 봉천동 1685-32,1828.75
326,남부순환로(수서IC),D-39,3,863.0,669.0,539.0,512.0,659.0,1045.0,1653.0,2443.0,2721.0,2699.0,2617.0,2535.0,2454.0,2582.0,2556.0,2570.0,2606.0,2585.0,2473.0,2237.0,2071.0,2128.0,1943.0,1240.0,37.495912,127.090903,서울시 강남구 일원동 3-16,1933.3333333333333
338,남부순환로(신월IC),D-19,3,774.0,525.0,414.0,391.0,625.0,1557.0,2442.0,2640.0,2853.0,2851.0,2822.0,2781.0,2754.0,2836.0,2853.0,2863.0,2927.0,3032.0,2992.0,2750.0,2433.0,2237.0,1983.0,1234.0,37.524081,126.835862,서울시 양천구 신월동 838 ,2148.7083333333335
350,남부순환로(예술의전당),D-34,3,672.0,450.0,319.0,257.0,354.0,798.0,1482.0,2145.0,2274.0,2298.0,2205.0,2080.0,2014.0,2160.0,2198.0,2254.0,2353.0,2453.0,2340.0,2010.0,1685.0,1726.0,1595.0,1037.0,37.476405,127.00445,서울시 서초구 방배동 1009-3,1631.625
362,남부순환로(화곡로입구 교차로),D-18,3,478.0,328.0,267.0,258.0,440.0,933.0,1622.0,1926.0,2137.0,2079.0,2035.0,1981.0,1888.0,1947.0,1966.0,1973.0,1971.0,1978.0,1881.0,1703.0,1521.0,1388.0,1238.0,741.0,37.540163,126.825453,서울시 양천구 신월동 29-7,1444.9583333333333
374,남산1호터널,A-20,3,545.0,338.0,243.0,200.0,251.0,592.0,1500.0,1622.0,1848.0,1816.0,1774.0,1833.0,1719.0,1835.0,1748.0,1651.0,1576.0,1629.0,1548.0,1385.0,1326.0,1695.0,1463.0,920.0,37.542406,127.001356,서울시 용산구 한남동 산 10-33,1294.0416666666667
386,남산2호터널,A-21,3,107.0,77.0,61.0,52.0,79.0,119.0,240.0,518.0,609.0,553.0,550.0,564.0,552.0,572.0,595.0,601.0,605.0,623.0,594.0,444.0,345.0,320.0,268.0,163.0,37.544301,126.989767,서울시 용산구 이태원동 262-35,383.7916666666667
398,남산3호터널,A-22,3,209.0,133.0,96.0,78.0,87.0,194.0,530.0,751.0,986.0,928.0,875.0,892.0,850.0,966.0,986.0,991.0,966.0,984.0,922.0,706.0,583.0,703.0,556.0,325.0,37.544496,126.98835,서울시 용산구 용산동2가 5-432,637.375
410,내부순환로,F-03,3,1276.0,846.0,616.0,568.0,876.0,2289.0,3548.0,3606.0,3487.0,3606.0,3657.0,3663.0,3584.0,3593.0,3620.0,3667.0,3782.0,3715.0,3492.0,3468.0,3275.0,3258.0,3125.0,2098.0,37.608679,126.998878,서울시 성북구 정릉동 590-16,2863.125
422,노들로,D-41,3,432.0,283.0,211.0,185.0,252.0,462.0,934.0,1427.0,1722.0,1569.0,1517.0,1543.0,1485.0,1593.0,1659.0,1729.0,1763.0,1710.0,1567.0,1466.0,1317.0,1209.0,1151.0,707.0,37.529712,126.909281,서울시 영등포구 당산동 364 ,1162.2083333333333
434,대사관로(삼청터널),A-04,3,31.0,18.0,10.0,9.0,14.0,43.0,171.0,396.0,392.0,395.0,335.0,302.0,295.0,310.0,317.0,351.0,417.0,438.0,388.0,303.0,225.0,185.0,138.0,64.0,37.596359,126.984209,서울시 성북구 성북동 산25-148,231.125
446,대학로(한국방송통신대학교),A-07,3,193.0,127.0,102.0,88.0,112.0,217.0,404.0,648.0,723.0,651.0,687.0,698.0,677.0,692.0,698.0,683.0,657.0,553.0,456.0,441.0,437.0,448.0,390.0,282.0,37.578188,127.002053,서울시 종로구 연건동 72-3,461.0
458,도봉로(도봉산역),B-01,3,330.0,239.0,173.0,174.0,279.0,499.0,862.0,1542.0,1802.0,1460.0,1306.0,1247.0,1275.0,1301.0,1317.0,1361.0,1482.0,1717.0,1768.0,1409.0,960.0,838.0,735.0,500.0,37.691792,127.045087,서울시 도봉구 도봉동 378-1,1024.0
470,도봉로(쌍문역),D-11,3,434.0,305.0,238.0,208.0,273.0,470.0,764.0,1070.0,1237.0,1181.0,1179.0,1142.0,1099.0,1149.0,1171.0,1164.0,1221.0,1222.0,1216.0,1072.0,963.0,868.0,838.0,611.0,37.645707,127.033171,서울시 도봉구 창동 650-46,878.9583333333334
482,동부간선도로,F-05,3,1548.0,1014.0,728.0,664.0,985.0,2376.0,3176.0,3154.0,3087.0,3257.0,3287.0,3454.0,3554.0,3601.0,3561.0,3698.0,3712.0,3301.0,2998.0,3040.0,3256.0,3463.0,3336.0,2387.0,37.568685,127.076023,서울시 동대문구 장안동 19-7,2776.5416666666665
494,동부간선도로(월계1교),D-12,3,1343.0,921.0,680.0,639.0,1031.0,2354.0,2804.0,2717.0,2877.0,2978.0,2826.0,2820.0,2961.0,2996.0,2938.0,3021.0,3102.0,2983.0,2841.0,2867.0,2826.0,2855.0,2737.0,2050.0,37.631579,127.063432,서울시 노원구 월계동 247-17,2423.625
506,동소문로(길음교사거리),D-09,3,636.0,412.0,305.0,271.0,408.0,643.0,1103.0,1384.0,1513.0,1515.0,1525.0,1511.0,1458.0,1498.0,1482.0,1506.0,1472.0,1435.0,1334.0,1243.0,1251.0,1285.0,1202.0,904.0,37.599755,127.021693,서울시 성북구 돈암동 32-31,1137.3333333333333
518,동일로(군자교),D-07,3,684.0,491.0,356.0,289.0,343.0,668.0,1109.0,1213.0,1395.0,1503.0,1647.0,1672.0,1658.0,1701.0,1754.0,1815.0,1905.0,1965.0,1895.0,1693.0,1511.0,1474.0,1330.0,984.0,37.553809,127.070504,서울시 성동구 송정동 83,1293.9583333333333
530,동일로(노원역),D-13,3,275.0,169.0,123.0,100.0,132.0,231.0,497.0,924.0,1069.0,1068.0,1118.0,1126.0,1070.0,1123.0,1175.0,1192.0,1199.0,1199.0,1161.0,963.0,788.0,704.0,638.0,422.0,37.652409,127.061032,서울시 노원구 상계동 729,769.4166666666666
542,동일로(의정부IC),B-02,3,412.0,290.0,202.0,193.0,314.0,790.0,1607.0,2561.0,2958.0,2474.0,2341.0,2249.0,2248.0,2336.0,2392.0,2489.0,2719.0,2919.0,2725.0,2266.0,1718.0,1438.0,1174.0,687.0,37.688571,127.055376,서울시 노원구 상계동 1311-3,1729.25
554,동작대교,C-10,3,312.0,187.0,127.0,108.0,130.0,353.0,866.0,1488.0,1877.0,1658.0,1573.0,1571.0,1519.0,1578.0,1635.0,1740.0,1914.0,1961.0,1835.0,1276.0,1061.0,1018.0,885.0,500.0,37.509936,126.981814,서울시 용산구 이촌동 385,1132.1666666666667
566,동작대로(총신대입구역),D-31,3,755.0,464.0,331.0,281.0,392.0,940.0,1841.0,2211.0,2259.0,2358.0,2339.0,2224.0,2179.0,2192.0,2180.0,2176.0,2262.0,2126.0,1953.0,1849.0,1943.0,1944.0,1835.0,1180.0,37.494352,126.982914,서울시 서초구 방배동 1255,1675.5833333333333
578,동호대교,C-14,3,549.0,418.0,321.0,267.0,300.0,460.0,949.0,1904.0,2151.0,2161.0,2146.0,2033.0,1919.0,1984.0,1994.0,1996.0,2032.0,2093.0,1949.0,1521.0,1518.0,1405.0,1213.0,778.0,37.538207,127.019882,서울시 성동구 옥수동 86,1419.2083333333333
590,동호로(금호터널),D-03,3,482.0,374.0,295.0,248.0,293.0,437.0,865.0,1596.0,1713.0,1694.0,1733.0,1737.0,1697.0,1766.0,1785.0,1753.0,1754.0,1732.0,1622.0,1416.0,1311.0,1167.0,1025.0,679.0,37.551919,127.012977,서울시 중구 신당동 349-202,1215.5833333333333
602,동호로(장충체육관),A-10,3,312.0,239.0,175.0,150.0,186.0,284.0,623.0,1298.0,1498.0,1446.0,1481.0,1496.0,1468.0,1554.0,1573.0,1556.0,1574.0,1568.0,1433.0,1195.0,1047.0,867.0,703.0,449.0,37.558563,127.007101,서울시 중구 장충동2가 200-99,1007.2916666666666
614,뚝섬로(용비교),D-06,3,435.0,278.0,205.0,172.0,207.0,436.0,1056.0,1651.0,1888.0,1955.0,1961.0,1900.0,1768.0,1843.0,1912.0,1912.0,1896.0,1947.0,1786.0,1487.0,1230.0,1217.0,1206.0,705.0,37.542006,127.020674,서울시 성동구 옥수동 산 1-11 ,1293.875
626,마포대교,C-07,3,652.0,427.0,315.0,247.0,335.0,726.0,1587.0,2722.0,3032.0,2741.0,2620.0,2714.0,2494.0,2762.0,2742.0,2780.0,2834.0,2967.0,2800.0,2470.0,2229.0,2075.0,1727.0,1019.0,37.533628,126.936512,서울시 영등포구 여의도동 85-2,1959.0416666666667
638,망우로(망우리공원),B-04,3,182.0,120.0,88.0,83.0,126.0,273.0,561.0,910.0,1094.0,902.0,799.0,782.0,767.0,804.0,823.0,842.0,929.0,1079.0,1089.0,849.0,597.0,512.0,447.0,280.0,37.601476,127.115674,경기도 구리시 교문동 346-3,622.4166666666666
650,문성로(난곡터널),D-32,3,145.0,105.0,76.0,72.0,86.0,149.0,233.0,382.0,431.0,406.0,396.0,392.0,376.0,399.0,415.0,429.0,453.0,473.0,467.0,404.0,342.0,308.0,282.0,198.0,37.479046,126.924252,서울시 관악구 신림동 438-44,309.125
662,반포대교,C-11,3,667.0,418.0,291.0,220.0,264.0,604.0,1537.0,2422.0,2621.0,2568.0,2488.0,2564.0,2498.0,2536.0,2561.0,2562.0,2558.0,2569.0,2447.0,2062.0,2021.0,2029.0,1805.0,1084.0,37.514431,126.996663,서울시 서초구 반포동 647,1808.1666666666667
674,반포대로(서초역),D-37,3,466.0,287.0,191.0,145.0,180.0,484.0,1391.0,2181.0,2131.0,2369.0,2450.0,2430.0,2287.0,2447.0,2458.0,2365.0,2389.0,2283.0,2241.0,2007.0,1775.0,1759.0,1547.0,854.0,37.49624,127.005554,서울시 서초구 서초동 산 183-3 ,1629.875
686,반포대로(우면산터널),B-17,3,307.0,186.0,120.0,92.0,131.0,387.0,1240.0,1945.0,2070.0,2001.0,1977.0,2000.0,1862.0,1925.0,1932.0,1994.0,2076.0,2204.0,2193.0,1837.0,1398.0,1248.0,1068.0,584.0,37.483905,127.011416,서울시 서초구 서초동 1460-6,1365.7083333333333
698,밤고개로(세곡동사거리),B-13,3,119.0,80.0,58.0,51.0,84.0,215.0,593.0,1461.0,1724.0,1372.0,1227.0,1106.0,1043.0,1094.0,1078.0,1132.0,1315.0,1671.0,1656.0,1063.0,688.0,553.0,434.0,233.0,37.462416,127.107883,서울시 강남구 세곡동 130-6,835.4166666666666
710,백제고분로(종합운동장),D-44,3,378.0,260.0,190.0,136.0,138.0,272.0,482.0,902.0,1053.0,1044.0,1041.0,1065.0,1051.0,1113.0,1096.0,1084.0,1070.0,1129.0,1091.0,962.0,935.0,967.0,886.0,537.0,37.510639,127.078559,서울시 송파구 잠실동 124,786.75
722,북부간선도로(신내IC),B-07,3,834.0,575.0,467.0,527.0,745.0,1894.0,2730.0,2855.0,2804.0,2863.0,3008.0,2997.0,3089.0,3198.0,3210.0,3319.0,3472.0,3292.0,3048.0,2975.0,2893.0,2657.0,2330.0,1338.0,37.613824,127.1087,서울시 중랑구 신내동 122-3,2380.0
734,북부간선로,F-04,3,1019.0,689.0,531.0,513.0,809.0,2037.0,2704.0,2714.0,2651.0,2785.0,2790.0,2760.0,2814.0,2811.0,2792.0,2774.0,2811.0,2752.0,2619.0,2644.0,2647.0,2601.0,2451.0,1634.0,37.608556,127.052577,서울시 성북구 장위동 65-175 ,2223.0
746,분당수서로,F-07,3,1069.0,722.0,544.0,486.0,668.0,1895.0,3276.0,3464.0,3558.0,3663.0,3634.0,3628.0,3617.0,3620.0,3590.0,3615.0,3689.0,3665.0,3532.0,3324.0,3187.0,3125.0,2898.0,1796.0,37.497648,127.087195,서울시 강남구 일원동 467-1,2761.0416666666665
758,분당수서로(성남시계),B-14,3,758.0,481.0,354.0,341.0,501.0,1461.0,2662.0,2668.0,2596.0,2686.0,2699.0,2693.0,2704.0,2753.0,2701.0,2745.0,2823.0,2707.0,2570.0,2439.0,2491.0,2391.0,2206.0,1298.0,37.471129,127.123078,서울시 송파구 장지동 698-5,2072.0
770,사직로(사직터널),A-02,3,548.0,355.0,253.0,214.0,279.0,526.0,1107.0,1801.0,1876.0,1818.0,1777.0,1779.0,1727.0,1796.0,1842.0,1853.0,1922.0,1973.0,1872.0,1607.0,1400.0,1379.0,1158.0,806.0,37.572298,126.962853,서울시 종로구 행촌동 1-186,1319.5
782,사평대로(고속터미널역),D-36,3,693.0,468.0,325.0,253.0,293.0,632.0,1423.0,2094.0,2092.0,2183.0,2154.0,2228.0,2193.0,2304.0,2310.0,2346.0,2361.0,2308.0,2275.0,2113.0,1867.0,1946.0,1798.0,1025.0,37.503742,127.007779,서울시 서초구 반포동 60-2,1653.5
794,새문안로(서울역사박물관),A-14,3,388.0,263.0,188.0,156.0,191.0,374.0,702.0,1072.0,1213.0,1180.0,1180.0,1232.0,1216.0,1336.0,1307.0,1295.0,1280.0,1328.0,1305.0,1098.0,969.0,923.0,760.0,542.0,37.569776,126.971354,서울시 종로구 신문로2가 1-2,895.75
806,서강대교,C-06,3,218.0,144.0,102.0,83.0,115.0,228.0,554.0,1186.0,1405.0,1234.0,1140.0,1178.0,1099.0,1213.0,1249.0,1299.0,1418.0,1603.0,1592.0,1029.0,768.0,718.0,635.0,350.0,37.537537,126.925341,서울시 영등포구 여의도동 83-1,856.6666666666666
818,서부간선도로,F-09,3,1573.0,1005.0,725.0,669.0,1080.0,2323.0,2535.0,2316.0,2085.0,2268.0,2336.0,2396.0,2441.0,2392.0,2364.0,2345.0,2326.0,2105.0,2100.0,2334.0,2576.0,2698.0,2659.0,2263.0,37.520965,126.881826,서울시 영등포구 문래동6가 52,2079.75
830,서빙고로(한남역),D-04,3,678.0,445.0,327.0,263.0,313.0,574.0,1201.0,1957.0,2264.0,2286.0,2322.0,2393.0,2338.0,2386.0,2462.0,2567.0,2662.0,2666.0,2424.0,2043.0,1828.0,1854.0,1797.0,1057.0,37.527197,127.004697,서울시 용산구 한남동 542-10,1712.7916666666667
842,서소문로(시청역),A-16,3,325.0,217.0,157.0,129.0,174.0,323.0,607.0,904.0,982.0,1012.0,1017.0,1073.0,1029.0,1107.0,1105.0,1136.0,1178.0,1283.0,1192.0,1021.0,825.0,790.0,685.0,487.0,37.562819,126.972716,서울시 중구 서소문동 72-2,781.5833333333334
854,서오릉로(고양시계),B-34,3,269.0,181.0,140.0,134.0,183.0,358.0,748.0,1185.0,1279.0,1167.0,1142.0,1144.0,1184.0,1208.0,1216.0,1213.0,1281.0,1401.0,1360.0,1151.0,863.0,756.0,659.0,372.0,37.617883,126.90626,서울시 은평구 구산동 304-15,858.0833333333334
866,서하남로(서하남IC),B-08,3,468.0,364.0,297.0,280.0,404.0,1159.0,2241.0,2901.0,2905.0,2940.0,2964.0,2896.0,2822.0,2903.0,2939.0,2998.0,3088.0,2978.0,2774.0,2403.0,1955.0,1646.0,1350.0,751.0,37.516777,127.146728,경기도 하남시 감북동 442-15,2017.75
878,성산대교,C-04,3,1241.0,782.0,556.0,501.0,807.0,2010.0,3277.0,3749.0,3703.0,3797.0,3737.0,3766.0,3769.0,3791.0,3777.0,3839.0,4095.0,4084.0,3857.0,3319.0,3207.0,3266.0,3061.0,2061.0,37.55268,126.891564,서울시 마포구 망원동 306-53,2918.8333333333335
890,성산로(금화터널),A-01,3,439.0,280.0,198.0,168.0,225.0,447.0,979.0,1648.0,1768.0,1637.0,1585.0,1591.0,1566.0,1663.0,1684.0,1724.0,1782.0,1877.0,1807.0,1544.0,1269.0,1212.0,1012.0,697.0,37.568588,126.948436,서울시 서대문구 신촌동 1-142,1200.0833333333333
902,성산로(연희IC),D-16,3,574.0,373.0,263.0,233.0,344.0,730.0,1345.0,1626.0,1583.0,1923.0,2007.0,2042.0,2027.0,2090.0,2099.0,2153.0,2108.0,2148.0,2112.0,1804.0,1504.0,1484.0,1256.0,887.0,37.563506,126.9301,서울시 서대문구 연희동 341-41,1446.4583333333333
914,성수대교,C-15,3,1276.0,846.0,620.0,538.0,710.0,1410.0,2344.0,3085.0,3470.0,3328.0,3246.0,3201.0,3235.0,3390.0,3379.0,3492.0,3607.0,3641.0,3223.0,2681.0,2738.0,2924.0,2790.0,1918.0,37.536768,127.034972,서울시 성동구 옥수동 484,2545.5
926,세종대로(서울역),A-13,3,,,,,,,,,,,,,,,,,,,,,,,,,37.558061,126.973439,서울시 중구 남대문로5가 84-15,
938,세종대로(시청역2),A-17,3,,,,,,,,,,,,,,,,,,,,,,,,,37.567496,126.977208,서울시 중구 태평로1가 61-29,
950,소월로(회현역),A-23,3,28.0,21.0,13.0,10.0,12.0,30.0,76.0,316.0,392.0,344.0,287.0,299.0,275.0,318.0,332.0,330.0,340.0,370.0,354.0,252.0,167.0,106.0,72.0,44.0,37.557044,126.976362,서울시 중구 남창동 217-1,199.5
962,소파로(숭의여자대학교),A-24,3,36.0,25.0,21.0,14.0,15.0,22.0,48.0,165.0,361.0,253.0,238.0,266.0,295.0,346.0,339.0,351.0,319.0,314.0,317.0,228.0,170.0,132.0,89.0,59.0,37.554896,126.983521,서울시 중구 회현동1가 산1-16,184.29166666666666
974,송파대로(복정역),B-12,3,425.0,305.0,207.0,194.0,276.0,584.0,1124.0,1710.0,1669.0,1724.0,1681.0,1558.0,1520.0,1575.0,1566.0,1590.0,1715.0,1856.0,1754.0,1372.0,1150.0,1119.0,954.0,617.0,37.468797,127.126419,서울시 송파구 장지동 697-14,1176.875
986,송파대로(송파역),D-45,3,651.0,492.0,344.0,294.0,349.0,585.0,1177.0,1888.0,2074.0,2070.0,2038.0,2017.0,1944.0,1978.0,1989.0,2044.0,2097.0,2155.0,2126.0,1857.0,1644.0,1519.0,1391.0,951.0,37.500537,127.111445,서울시 송파구 송파동 2-15 ,1486.4166666666667
998,수색로(고양시계),B-35,3,,,,,,,,,,,,,,,,,,,,,,,,,37.587472,126.886414,서울시 은평구 수색동 281-12,
1010,시흥대로(구로디지털단지역),D-26,3,489.0,325.0,239.0,209.0,364.0,873.0,1241.0,1809.0,1966.0,1902.0,1975.0,1903.0,1888.0,1895.0,1961.0,1974.0,2103.0,2238.0,2152.0,1864.0,1547.0,1375.0,1137.0,740.0,37.486787,126.904415,서울시 영등포구 대림동 993-57,1423.7083333333333
1022,시흥대로(석수역),B-18,3,527.0,293.0,199.0,185.0,342.0,975.0,1665.0,2130.0,2075.0,2143.0,2178.0,2093.0,2040.0,2105.0,2133.0,2231.0,2323.0,2469.0,2477.0,2152.0,1721.0,1491.0,1236.0,779.0,37.437013,126.902811,서울시 금천구 시흥동 1001-34,1581.75
1034,시흥대로(시흥IC),D-24,3,399.0,263.0,188.0,165.0,401.0,1012.0,1421.0,2286.0,2413.0,2299.0,2286.0,2124.0,2010.0,2104.0,2139.0,2161.0,2202.0,2305.0,2167.0,1949.0,1603.0,1396.0,1012.0,673.0,37.477189,126.898532,서울시 금천구 독산동 142-7,1540.75
1046,신정로(작동터널),B-30,3,233.0,150.0,103.0,96.0,141.0,384.0,865.0,1344.0,1354.0,1225.0,1195.0,1190.0,1153.0,1211.0,1212.0,1224.0,1323.0,1471.0,1474.0,1185.0,886.0,752.0,618.0,388.0,37.506104,126.824602,서울시 구로구 궁동 산 1-94,882.375
1058,아차산로(워커힐),B-03,3,132.0,85.0,63.0,49.0,62.0,166.0,430.0,949.0,974.0,890.0,780.0,724.0,680.0,719.0,717.0,719.0,772.0,896.0,1030.0,768.0,552.0,489.0,346.0,217.0,37.550897,127.108955,서울시 광진구 광장동 145-2,550.375
1070,양녕로(상도터널),D-30,3,754.0,473.0,344.0,282.0,339.0,711.0,1350.0,1744.0,1637.0,1918.0,1852.0,1791.0,1767.0,1798.0,1799.0,1860.0,1902.0,1867.0,1777.0,1665.0,1642.0,1683.0,1619.0,1104.0,37.511204,126.953469,서울시 동작구 본동 136-4,1403.25
1082,양재대로(양재IC),B-16,3,,,,,,,,,,,,,,,,,,,,,,,,,37.460089,127.030175,경기도 과천시 주암동 89-18,
1094,양화대교,C-05,3,1317.0,870.0,636.0,538.0,673.0,1440.0,2550.0,3380.0,3768.0,3707.0,3681.0,3612.0,3409.0,3476.0,3498.0,3562.0,3709.0,3676.0,3481.0,3201.0,2874.0,2867.0,2743.0,1900.0,37.542913,126.903766,서울시 마포구 합정동 351-4,2690.3333333333335
1106,언주로(매봉터널),D-38,3,426.0,289.0,212.0,161.0,186.0,359.0,831.0,1413.0,1571.0,1623.0,1587.0,1558.0,1566.0,1589.0,1651.0,1638.0,1692.0,1694.0,1715.0,1513.0,1398.0,1363.0,1242.0,696.0,37.492009,127.047969,서울시 강남구 도곡동 산 6-13,1165.5416666666667
1118,여의대방로(여의교),D-29,3,684.0,420.0,299.0,244.0,345.0,767.0,1435.0,2212.0,2484.0,2400.0,2252.0,2172.0,2089.0,2234.0,2260.0,2289.0,2386.0,2351.0,2221.0,1923.0,1775.0,1730.0,1535.0,1018.0,37.516852,126.928374,서울시 영등포구 여의도동 5-7,1646.875
1130,연희로(연희IC),D-17,3,311.0,214.0,148.0,114.0,141.0,258.0,486.0,778.0,799.0,903.0,935.0,943.0,950.0,966.0,986.0,1014.0,1029.0,1103.0,1080.0,957.0,825.0,798.0,713.0,493.0,37.566264,126.930537,서울시 서대문구 연희동 187-58,706.0
1142,영동대교,C-16,3,1022.0,705.0,516.0,407.0,468.0,968.0,1988.0,2679.0,3106.0,3204.0,3312.0,3351.0,3229.0,3380.0,3431.0,3512.0,3706.0,3698.0,3308.0,2821.0,2676.0,2736.0,2473.0,1548.0,37.530295,127.057339,서울시 광진구 자양동 825-1,2426.8333333333335
1154,영등포로(오목교),D-25,3,412.0,272.0,204.0,174.0,210.0,412.0,846.0,1321.0,1456.0,1570.0,1563.0,1576.0,1530.0,1594.0,1633.0,1644.0,1680.0,1665.0,1579.0,1357.0,1281.0,1203.0,1050.0,616.0,37.523175,126.883725,서울시 영등포구 양평동2가 20-1,1118.6666666666667
1166,오리로(광명시계),B-20,3,184.0,119.0,80.0,81.0,129.0,267.0,492.0,715.0,784.0,751.0,735.0,701.0,679.0,708.0,725.0,755.0,809.0,817.0,787.0,666.0,535.0,467.0,389.0,249.0,37.482607,126.843109,서울시 구로구 천왕동 10-1,526.0
1178,오정로(부천시계),B-26,3,95.0,66.0,64.0,60.0,149.0,331.0,517.0,754.0,694.0,582.0,569.0,584.0,575.0,583.0,594.0,614.0,718.0,835.0,803.0,588.0,399.0,350.0,314.0,170.0,37.542779,126.809411,서울시 강서구 공항동 406-13,458.6666666666667
1190,올림픽대교,C-19,3,256.0,155.0,123.0,113.0,159.0,479.0,1211.0,1948.0,2148.0,1937.0,1965.0,1818.0,1713.0,1812.0,1910.0,2013.0,2123.0,2324.0,2238.0,1753.0,1265.0,1072.0,860.0,458.0,37.533789,127.10412,서울시 송파구 신천동 253,1327.2083333333333
1202,올림픽대로,F-01,3,2319.0,1600.0,1217.0,1140.0,1541.0,3567.0,5436.0,6231.0,6364.0,6268.0,6306.0,6425.0,6359.0,6494.0,6493.0,6469.0,6428.0,6139.0,5537.0,5272.0,5495.0,5781.0,5574.0,3654.0,37.506002,126.97375,서울시 동작구 동작동 322-3,4921.208333333333
1214,올림픽대로(강일IC),B-10,3,1311.0,876.0,672.0,654.0,967.0,2582.0,4825.0,5427.0,5792.0,5712.0,5830.0,5606.0,5527.0,5561.0,5587.0,5650.0,5955.0,5882.0,5770.0,5634.0,5073.0,4452.0,3749.0,2211.0,37.569891,127.157292,서울시 강동구 고덕동 365-3,4221.041666666667
1226,올림픽대로(개화IC),B-32,3,1338.0,996.0,811.0,817.0,1217.0,2727.0,3901.0,3577.0,3770.0,3917.0,4310.0,4411.0,4559.0,4606.0,4770.0,4879.0,4897.0,4983.0,4752.0,4854.0,4226.0,3823.0,3438.0,2290.0,37.587814,126.812795,서울 강서구 개화동 280-2,3494.5416666666665
1238,원효대교,C-08,3,296.0,211.0,138.0,107.0,137.0,330.0,777.0,1528.0,1739.0,1523.0,1482.0,1496.0,1398.0,1511.0,1536.0,1602.0,1622.0,1663.0,1512.0,1122.0,931.0,875.0,698.0,437.0,37.526745,126.945137,서울시 영등포구 여의도동 87-2,1027.9583333333333
1250,율곡로(안국역),A-05,3,483.0,311.0,225.0,201.0,270.0,435.0,829.0,1228.0,1346.0,1384.0,1454.0,1492.0,1477.0,1524.0,1526.0,1530.0,1470.0,1464.0,1276.0,1205.0,1120.0,1126.0,989.0,692.0,37.576,126.984342,서울시 종로구 경운동 90-4,1044.0416666666667
1262,을지로(을지로3가역),A-18,3,276.0,219.0,166.0,140.0,169.0,213.0,392.0,718.0,802.0,808.0,855.0,877.0,855.0,897.0,902.0,909.0,892.0,814.0,743.0,728.0,641.0,529.0,442.0,342.0,37.566114,126.989326,서울시 중구 을지로2가 149-10,597.0416666666666
1274,자하문로(자하문터널),A-03,3,164.0,97.0,72.0,58.0,80.0,184.0,531.0,851.0,826.0,846.0,821.0,732.0,688.0,731.0,765.0,773.0,848.0,873.0,827.0,707.0,578.0,540.0,463.0,283.0,37.588831,126.968548,서울시 종로구 청운동 24-6,555.75
1286,잠수교,C-12,3,143.0,86.0,55.0,40.0,45.0,138.0,360.0,571.0,595.0,614.0,644.0,631.0,602.0,640.0,674.0,688.0,699.0,744.0,615.0,508.0,455.0,472.0,461.0,256.0,37.50826,126.999744,서울시 서초구 잠원동 114,447.3333333333333
1298,잠실대교,C-18,3,740.0,491.0,344.0,291.0,366.0,752.0,1627.0,2412.0,2525.0,2456.0,2579.0,2539.0,2424.0,2415.0,2498.0,2599.0,2709.0,2794.0,2705.0,2511.0,2116.0,2038.0,1839.0,1200.0,37.523821,127.092036,서울시 송파구 신천동 245,1873.75
1310,장충단로(장충단공원),A-11,3,289.0,209.0,156.0,134.0,188.0,287.0,572.0,1092.0,1280.0,1310.0,1295.0,1358.0,1366.0,1402.0,1426.0,1447.0,1418.0,1383.0,1318.0,1066.0,879.0,776.0,666.0,436.0,37.556889,127.004655,서울시 중구 장충동2가 산6-6,906.375
1322,종로(동묘앞역),A-08,3,589.0,430.0,338.0,299.0,390.0,576.0,887.0,1125.0,1241.0,1325.0,1388.0,1353.0,1356.0,1367.0,1350.0,1372.0,1360.0,1329.0,1270.0,1245.0,1152.0,1071.0,939.0,763.0,37.573262,127.017112,서울시 종로구 숭인동 273,1021.4583333333334
1334,종로(종로3가역),A-15,3,417.0,292.0,210.0,169.0,209.0,372.0,662.0,1033.0,1109.0,1136.0,1155.0,1161.0,1164.0,1183.0,1206.0,1202.0,1177.0,1164.0,1086.0,991.0,886.0,790.0,644.0,529.0,37.570216,126.990832,서울시 종로구 종로3가 137-3,831.125
1346,증산로(디지털미디어시티역),D-14,3,662.0,436.0,328.0,304.0,444.0,902.0,1340.0,1508.0,1602.0,1715.0,1675.0,1624.0,1633.0,1679.0,1705.0,1759.0,1865.0,1791.0,1680.0,1550.0,1509.0,1487.0,1431.0,1008.0,37.579684,126.905124,서울시 은평구 증산동 199-12,1318.2083333333333
1358,진흥로(구기터널),D-01,3,228.0,146.0,106.0,91.0,121.0,290.0,817.0,1150.0,1234.0,1220.0,1187.0,1110.0,1046.0,1084.0,1123.0,1169.0,1314.0,1424.0,1333.0,1121.0,887.0,789.0,668.0,382.0,37.608686,126.955198,서울시 종로구 구기동 244-7,835.0
1370,창경궁로(서울여자대학교),A-06,3,369.0,232.0,164.0,149.0,231.0,397.0,781.0,1096.0,1149.0,1071.0,996.0,1011.0,990.0,998.0,1003.0,1012.0,990.0,950.0,876.0,810.0,830.0,861.0,767.0,552.0,37.582526,126.998011,서울시 종로구 명륜4가 197-5,761.875
1382,천호대교,C-20,3,490.0,316.0,233.0,196.0,258.0,558.0,1205.0,1883.0,2004.0,1972.0,2011.0,1955.0,1846.0,1795.0,1867.0,1949.0,2008.0,2050.0,1940.0,1737.0,1436.0,1290.0,1229.0,739.0,37.542673,127.112883,서울시 송파구 풍납동 383,1373.625
1394,천호대로(군자교),D-05,3,618.0,432.0,332.0,283.0,355.0,677.0,1201.0,1927.0,2312.0,2297.0,2279.0,2187.0,2102.0,2206.0,2281.0,2296.0,2355.0,2398.0,2299.0,1983.0,1642.0,1518.0,1331.0,926.0,37.560716,127.068571,서울시 성동구 용답동 224-4,1593.2083333333333
1406,천호대로(상일IC),B-09,3,,,,,,,,,,,,,,,,,,,,,,,,,37.547459,127.175222,서울시 강동구 상일동 12-2,
1418,철산교(광명시계),B-23,3,339.0,218.0,164.0,130.0,218.0,604.0,767.0,1045.0,986.0,1092.0,1115.0,1106.0,1109.0,1154.0,1129.0,1136.0,1108.0,1091.0,1056.0,1020.0,954.0,904.0,762.0,497.0,37.474933,126.878154,서울시 금천구 가산동 614-72,821.0
1430,청담대교,C-17,3,901.0,618.0,462.0,441.0,656.0,1761.0,2953.0,3099.0,3175.0,3302.0,3364.0,3319.0,3261.0,3249.0,3325.0,3377.0,3564.0,3483.0,3202.0,3147.0,3045.0,2955.0,2699.0,1514.0,37.525513,127.064067,서울시 강남구 청담동 345,2536.3333333333335
1442,칠패로(숭례문),A-19,3,140.0,92.0,67.0,54.0,55.0,101.0,179.0,303.0,404.0,410.0,414.0,444.0,420.0,467.0,467.0,469.0,488.0,486.0,475.0,404.0,339.0,307.0,272.0,204.0,37.559593,126.972518,서울시 중구 봉래동1가 47-2,310.875
1454,테헤란로(선릉역),D-42,3,687.0,525.0,414.0,325.0,280.0,359.0,559.0,1048.0,1212.0,1321.0,1418.0,1535.0,1551.0,1663.0,1615.0,1647.0,1615.0,1440.0,1107.0,1225.0,1278.0,1391.0,1304.0,848.0,37.505483,127.052134,서울시 강남구 삼성동 172-66,1098.625
1466,통일로(고양시계),B-33,3,327.0,189.0,134.0,119.0,213.0,449.0,891.0,1306.0,1404.0,1403.0,1418.0,1387.0,1419.0,1437.0,1441.0,1453.0,1483.0,1480.0,1393.0,1221.0,1039.0,951.0,819.0,529.0,37.644685,126.91127,경기 고양시 덕양구 동산동 2-13,996.0416666666666
1478,통일로(산골고개정류장),D-15,3,770.0,487.0,358.0,303.0,478.0,1021.0,1498.0,1488.0,1526.0,1720.0,1722.0,1683.0,1724.0,1741.0,1749.0,1757.0,1804.0,1792.0,1777.0,1704.0,1699.0,1694.0,1585.0,1170.0,37.594931,126.940246,서울시 서대문구 홍은동 137-8,1385.4166666666667
1490,퇴계로(신당역),A-09,3,508.0,381.0,318.0,274.0,317.0,470.0,682.0,952.0,959.0,1035.0,1103.0,1134.0,1138.0,1140.0,1132.0,1125.0,1108.0,1086.0,1010.0,1021.0,980.0,888.0,756.0,647.0,37.565712,127.020912,서울시 중구 황학동 710,840.1666666666666
1502,퇴계로(회현역),A-12,3,175.0,134.0,127.0,105.0,107.0,175.0,321.0,486.0,608.0,545.0,531.0,582.0,591.0,659.0,668.0,675.0,665.0,642.0,608.0,509.0,425.0,340.0,313.0,228.0,37.557432,126.976486,서울시 중구 남창동 236-2,425.7916666666667
1514,평창문화로(북악터널),D-02,3,229.0,142.0,99.0,86.0,127.0,299.0,759.0,1078.0,1108.0,1160.0,1139.0,1101.0,1080.0,1115.0,1159.0,1226.0,1370.0,1440.0,1309.0,1037.0,838.0,771.0,667.0,382.0,37.611547,126.979308,서울시 종로구 평창동 2-15,821.7083333333334
1526,한강대교,C-09,3,874.0,551.0,389.0,325.0,403.0,884.0,1692.0,2301.0,2415.0,2397.0,2372.0,2304.0,2245.0,2287.0,2369.0,2458.0,2653.0,2783.0,2589.0,2360.0,2017.0,2025.0,1867.0,1267.0,37.51816,126.959472,서울시 용산구 이촌동 302-211,1826.125
1538,한남대교,C-13,3,1489.0,972.0,709.0,589.0,737.0,1682.0,3449.0,4614.0,5165.0,5151.0,4993.0,5055.0,4813.0,5015.0,5087.0,5115.0,4981.0,4984.0,4851.0,4106.0,3950.0,4289.0,3840.0,2328.0,37.526946,127.01319,서울시 강남구 신사동 490,3665.1666666666665
1550,행주대교,C-01,3,397.0,279.0,221.0,233.0,364.0,842.0,2026.0,2616.0,2727.0,2931.0,3053.0,2990.0,2850.0,2950.0,3078.0,3223.0,3618.0,3971.0,3700.0,2941.0,1886.0,1584.0,1333.0,713.0,37.598121,126.809931,서울시 강서구 개화동 652,2105.25
1562,헌릉로(세곡동사거리),D-40,3,241.0,154.0,111.0,92.0,150.0,448.0,1091.0,1721.0,1806.0,1871.0,1828.0,1746.0,1645.0,1698.0,1779.0,1866.0,2071.0,2212.0,2037.0,1524.0,1150.0,987.0,824.0,440.0,37.465092,127.105635,서울시 강남구 세곡동 산 30-4,1228.8333333333333
1574,화곡로(화곡로입구),B-27,3,264.0,183.0,137.0,127.0,196.0,513.0,848.0,997.0,1045.0,941.0,973.0,958.0,960.0,974.0,985.0,995.0,1015.0,995.0,939.0,832.0,736.0,694.0,629.0,410.0,37.539227,126.823123,서울시 양천구 신월동 37-1,722.75
1586,화랑로(상월곡역),D-08,3,711.0,497.0,406.0,375.0,520.0,1047.0,1354.0,1560.0,1771.0,1796.0,1783.0,1789.0,1788.0,1771.0,1783.0,1758.0,1760.0,1770.0,1770.0,1741.0,1643.0,1599.0,1496.0,1054.0,37.603932,127.044044,서울시 성북구 하월곡동 37-7,1397.5833333333333
1598,화랑로(조선왕릉),B-06,3,280.0,201.0,141.0,130.0,188.0,413.0,885.0,1443.0,1570.0,1419.0,1322.0,1263.0,1289.0,1285.0,1318.0,1379.0,1452.0,1485.0,1454.0,1219.0,935.0,844.0,731.0,434.0,37.630725,127.098984,서울시 노원구 공릉동산223-19,961.6666666666666
1610,화랑로(화랑대역),D-10,3,556.0,379.0,280.0,275.0,384.0,890.0,1384.0,1551.0,1616.0,1707.0,1880.0,1850.0,1841.0,1867.0,1888.0,1901.0,1926.0,1889.0,1838.0,1768.0,1553.0,1428.0,1339.0,853.0,37.619936,127.08295,"서울시, 노원구 공릉동 280-2",1368.4583333333333
