,지점명,지점번호,월,0시,1시,2시,3시,4시,5시,6시,7시,8시,9시,10시,11시,12시,13시,14시,15시,16시,17시,18시,19시,20시,21시,22시,23시,위도,경도,주소,하루평균
3,가양대교,C-03,4,985.0,674.0,511.0,503.0,694.0,1622.0,2736.0,2811.0,3112.0,3119.0,3055.0,3031.0,3045.0,3127.0,3159.0,3242.0,3431.0,3476.0,3312.0,2658.0,2590.0,2604.0,2447.0,1551.0,37.571567,126.862726,서울시 마포구 상암동 506-68,2395.625
15,강남대로(강남역-신분당),D-35,4,534.0,330.0,223.0,171.0,174.0,314.0,731.0,1222.0,1360.0,1365.0,1420.0,1510.0,1461.0,1538.0,1546.0,1615.0,1619.0,1640.0,1622.0,1449.0,1235.0,1113.0,1020.0,758.0,37.49059,127.03116,서울시 강남구 역삼동 858,1082.0833333333333
27,강남대로(신사역),D-43,4,800.0,577.0,418.0,331.0,330.0,500.0,883.0,1383.0,1505.0,1613.0,1646.0,1625.0,1628.0,1594.0,1747.0,1773.0,1811.0,1878.0,1909.0,1807.0,1662.0,1667.0,1576.0,1108.0,37.514859,127.020098,서울시 강남구 논현동 17-5,1323.7916666666667
39,강남순환로,F-08,4,425.0,248.0,167.0,141.0,225.0,833.0,2188.0,2688.0,2660.0,2624.0,2492.0,2369.0,2379.0,2517.0,2542.0,2589.0,2869.0,3205.0,2972.0,2428.0,1891.0,1659.0,1469.0,844.0,37.449096,126.926169,서울시 금천구 시흥동 산 93-1,1851.0
51,강변북로,F-02,4,2430.0,1589.0,1168.0,1062.0,1575.0,3729.0,5811.0,6186.0,6222.0,6394.0,6222.0,6150.0,6050.0,6054.0,6009.0,5803.0,5370.0,4677.0,4407.0,4620.0,5513.0,5914.0,5581.0,3746.0,37.517004,126.973968,서울시 용산구 이촌동 302-131,4678.416666666667
63,강변북로(구리시계),B-37,4,801.0,510.0,394.0,361.0,544.0,1524.0,3232.0,3560.0,3900.0,3903.0,4053.0,4111.0,4012.0,4044.0,4038.0,4145.0,4366.0,4413.0,4184.0,3670.0,3268.0,2962.0,2592.0,1463.0,37.558389,127.114274,경기도 구리시 아천동 390,2918.75
75,강변북로(난지한강공원),B-36,4,2184.0,1421.0,1109.0,1116.0,1697.0,4159.0,5758.0,5576.0,5722.0,5884.0,6141.0,6264.0,6574.0,6634.0,6660.0,6624.0,6673.0,6624.0,6331.0,6105.0,5964.0,5818.0,5362.0,3575.0,37.570903,126.872321,서울시 마포구 상암동 481-226,4998.958333333333
87,강서로(화곡터널),D-20,4,399.0,266.0,193.0,161.0,215.0,379.0,638.0,826.0,858.0,950.0,915.0,885.0,886.0,900.0,922.0,938.0,931.0,954.0,949.0,882.0,846.0,827.0,788.0,555.0,37.534375,126.845094,서울시 강서구 화곡동 산172-2,710.9583333333334
99,개봉로(개봉교),B-21,4,199.0,132.0,101.0,92.0,151.0,361.0,546.0,617.0,639.0,660.0,678.0,673.0,644.0,659.0,666.0,685.0,709.0,715.0,688.0,622.0,541.0,493.0,435.0,313.0,37.486181,126.8565,서울시 구로구 개봉동 403-97,500.7916666666667
111,경부고속도로,F-06,4,2098.0,1368.0,1034.0,975.0,1476.0,3563.0,5696.0,5052.0,4999.0,4927.0,4806.0,4736.0,4693.0,4737.0,4767.0,4781.0,4741.0,4412.0,4450.0,4551.0,4597.0,5433.0,5074.0,3466.0,37.493135,127.022533,서울시 서초구 서초동 1748-26 ,4018.0
123,경부고속도로(양재IC),B-11,4,1784.0,1146.0,865.0,805.0,1249.0,3275.0,5758.0,5147.0,4987.0,4699.0,4680.0,4599.0,4515.0,4492.0,4472.0,4604.0,4725.0,4846.0,4853.0,4700.0,4728.0,5221.0,4770.0,3106.0,37.465083,127.038643,서울시 서초구 양재동 227-4,3917.75
135,경인고속국도(신월IC),B-28,4,1578.0,1047.0,785.0,749.0,1129.0,2983.0,4306.0,4610.0,4434.0,4378.0,4398.0,4344.0,4454.0,4561.0,4524.0,4590.0,4790.0,4836.0,4678.0,4429.0,4085.0,3952.0,3602.0,2495.0,37.524875,126.831933,서울시 양천구 신월동 904-1,3572.375
147,경인로(거리공원입구교차로),D-23,4,374.0,227.0,153.0,137.0,277.0,855.0,1200.0,1315.0,1315.0,1322.0,1341.0,1324.0,1284.0,1288.0,1297.0,1300.0,1369.0,1385.0,1313.0,1167.0,1060.0,1037.0,831.0,579.0,37.50644,126.884382,서울시 구로구 신도림동 435-17,989.5833333333334
159,경인로(서울교),D-28,4,660.0,427.0,292.0,239.0,336.0,757.0,1615.0,2496.0,2647.0,2587.0,2524.0,2512.0,2421.0,2546.0,2576.0,2591.0,2668.0,2762.0,2671.0,2249.0,2040.0,1938.0,1626.0,1051.0,37.52019,126.914903,서울시 영등포구 영등포동2가 97-1,1842.9583333333333
171,경인로(오류IC),D-22,4,462.0,281.0,191.0,167.0,320.0,715.0,1061.0,1145.0,1056.0,1125.0,1194.0,1189.0,1223.0,1239.0,1265.0,1235.0,1303.0,1361.0,1342.0,1194.0,1093.0,1022.0,929.0,693.0,37.498246,126.851219,서울시 구로구 개봉동 80-22,950.2083333333334
183,경인로(유한공고),B-29,4,303.0,193.0,132.0,105.0,207.0,450.0,674.0,868.0,908.0,842.0,812.0,784.0,790.0,791.0,789.0,807.0,904.0,974.0,969.0,829.0,729.0,676.0,618.0,434.0,37.488614,126.822789,경기도 부천시 소사구 괴안동 206-5,649.5
195,경춘북로(중랑경찰서),B-05,4,263.0,173.0,129.0,120.0,224.0,524.0,1037.0,1396.0,1483.0,1421.0,1283.0,1241.0,1252.0,1288.0,1293.0,1327.0,1473.0,1623.0,1614.0,1336.0,1028.0,872.0,766.0,433.0,37.619942,127.105325,서울시 중랑구 신내동 271-1,983.2916666666666
207,공항대로(발산역),D-21,4,342.0,224.0,171.0,150.0,257.0,474.0,778.0,1204.0,1437.0,1398.0,1396.0,1358.0,1348.0,1390.0,1432.0,1410.0,1441.0,1422.0,1427.0,1194.0,985.0,868.0,792.0,504.0,37.559251,126.831069,서울시 강서구 마곡동 727-1154,975.0833333333334
219,과천대로(남태령역),B-15,4,466.0,257.0,171.0,153.0,247.0,727.0,1654.0,1903.0,1896.0,1822.0,1758.0,1718.0,1712.0,1781.0,1727.0,1731.0,1795.0,1858.0,1779.0,1546.0,1479.0,1393.0,1205.0,795.0,37.463288,126.988151,서울시 서초구 방배동 산190-1 ,1315.5416666666667
231,광명대교(광명시계),B-22,4,164.0,105.0,75.0,67.0,130.0,319.0,499.0,768.0,719.0,769.0,764.0,682.0,654.0,697.0,688.0,695.0,709.0,743.0,761.0,661.0,547.0,469.0,404.0,254.0,37.485044,126.873297,서울시 금천구 가산동 535-121,514.2916666666666
243,광진교,C-21,4,94.0,65.0,47.0,40.0,49.0,116.0,227.0,405.0,573.0,479.0,479.0,468.0,422.0,426.0,455.0,486.0,534.0,635.0,692.0,489.0,319.0,274.0,218.0,132.0,37.54412,127.115274,서울시 강동구 천호동 484-9,338.5
255,국회대로(여의2교),D-27,4,463.0,290.0,186.0,157.0,212.0,357.0,791.0,1346.0,1619.0,1432.0,1418.0,1518.0,1415.0,1526.0,1585.0,1576.0,1592.0,1574.0,1502.0,1283.0,1223.0,1223.0,1048.0,733.0,37.526003,126.910953,서울시 영등포구 영등포동7가 94-411,1086.2083333333333
267,금오로(광명시계),B-19,4,45.0,24.0,16.0,19.0,38.0,131.0,234.0,308.0,320.0,320.0,284.0,275.0,271.0,299.0,306.0,319.0,347.0,381.0,349.0,289.0,198.0,144.0,111.0,70.0,37.482431,126.841891,서울시 구로구 천왕동 24-2,212.41666666666666
279,금천교(광명시계),B-24,4,340.0,225.0,160.0,145.0,234.0,624.0,1101.0,1556.0,1593.0,1603.0,1624.0,1592.0,1504.0,1617.0,1619.0,1651.0,1680.0,1685.0,1574.0,1404.0,1160.0,962.0,813.0,533.0,37.465046,126.884245,서울시 금천구 독산동 668-54,1124.9583333333333
291,금하로(광명시계),B-25,4,187.0,102.0,73.0,67.0,133.0,312.0,645.0,954.0,949.0,954.0,921.0,883.0,865.0,907.0,913.0,966.0,1006.0,1066.0,1047.0,883.0,691.0,582.0,448.0,273.0,37.4514,126.891627,경기도 광명시 소하동 31-25,659.4583333333334
303,김포대로(개화교),B-31,4,261.0,159.0,118.0,116.0,235.0,588.0,1304.0,1552.0,1571.0,1584.0,1401.0,1275.0,1261.0,1293.0,1316.0,1360.0,1482.0,1752.0,1718.0,1251.0,992.0,881.0,800.0,472.0,37.585313,126.795571,경기도 김포시 고촌읍 전호리 436-3,1030.9166666666667
315,남부순환로(낙성대역),D-33,4,1148.0,762.0,553.0,442.0,536.0,1055.0,1696.0,2332.0,2388.0,2416.0,2369.0,2308.0,2274.0,2345.0,2390.0,2415.0,2535.0,2503.0,2371.0,2214.0,2053.0,2050.0,1973.0,1528.0,37.477711,126.962242,서울시 관악구 봉천동 1685-32,1860.6666666666667
327,남부순환로(수서IC),D-39,4,856.0,672.0,549.0,523.0,683.0,1089.0,1745.0,2499.0,2745.0,2733.0,2626.0,2521.0,2455.0,2621.0,2602.0,2600.0,2643.0,2594.0,2491.0,2245.0,2099.0,2129.0,1951.0,1248.0,37.495912,127.090903,서울시 강남구 일원동 3-16,1954.9583333333333
339,남부순환로(신월IC),D-19,4,803.0,533.0,423.0,402.0,673.0,1668.0,2568.0,2651.0,2848.0,2887.0,2827.0,2788.0,2769.0,2850.0,2835.0,2837.0,2837.0,2881.0,2818.0,2733.0,2503.0,2295.0,2043.0,1282.0,37.524081,126.835862,서울시 양천구 신월동 838 ,2156.4166666666665
351,남부순환로(예술의전당),D-34,4,688.0,447.0,314.0,259.0,360.0,843.0,1556.0,2189.0,2294.0,2306.0,2241.0,2107.0,2032.0,2160.0,2198.0,2245.0,2362.0,2451.0,2371.0,2014.0,1713.0,1765.0,1632.0,1049.0,37.476405,127.00445,서울시 서초구 방배동 1009-3,1649.8333333333333
363,남부순환로(화곡로입구 교차로),D-18,4,495.0,337.0,273.0,260.0,477.0,1026.0,1683.0,1922.0,2127.0,2067.0,2049.0,2002.0,1914.0,1976.0,1993.0,1970.0,1960.0,1951.0,1869.0,1722.0,1564.0,1422.0,1285.0,779.0,37.540163,126.825453,서울시 양천구 신월동 29-7,1463.4583333333333
375,남산1호터널,A-20,4,555.0,353.0,249.0,212.0,264.0,629.0,1608.0,1684.0,1889.0,1889.0,1813.0,1828.0,1730.0,1855.0,1746.0,1667.0,1595.0,1616.0,1568.0,1436.0,1360.0,1734.0,1518.0,941.0,37.542406,127.001356,서울시 용산구 한남동 산 10-33,1322.4583333333333
387,남산2호터널,A-21,4,107.0,77.0,62.0,53.0,80.0,125.0,249.0,507.0,603.0,558.0,546.0,571.0,554.0,576.0,596.0,604.0,609.0,643.0,617.0,449.0,350.0,326.0,287.0,171.0,37.544301,126.989767,서울시 용산구 이태원동 262-35,388.3333333333333
399,남산3호터널,A-22,4,210.0,138.0,97.0,81.0,88.0,204.0,569.0,768.0,999.0,954.0,900.0,922.0,873.0,986.0,1004.0,996.0,990.0,1007.0,948.0,726.0,602.0,726.0,571.0,331.0,37.544496,126.98835,서울시 용산구 용산동2가 5-432,653.75
411,내부순환로,F-03,4,1307.0,861.0,628.0,575.0,938.0,2430.0,3648.0,3650.0,3574.0,3558.0,3585.0,3525.0,3501.0,3483.0,3491.0,3531.0,3632.0,3624.0,3493.0,3387.0,3258.0,3287.0,3213.0,2224.0,37.608679,126.998878,서울시 성북구 정릉동 590-16,2850.125
423,노들로,D-41,4,436.0,290.0,216.0,190.0,263.0,490.0,955.0,1510.0,1752.0,1566.0,1504.0,1486.0,1420.0,1521.0,1578.0,1672.0,1778.0,1749.0,1581.0,1460.0,1345.0,1250.0,1187.0,715.0,37.529712,126.909281,서울시 영등포구 당산동 364 ,1163.0833333333333
435,대사관로(삼청터널),A-04,4,34.0,18.0,10.0,10.0,14.0,47.0,192.0,404.0,386.0,396.0,334.0,311.0,308.0,321.0,329.0,360.0,433.0,448.0,397.0,314.0,237.0,198.0,148.0,68.0,37.596359,126.984209,서울시 성북구 성북동 산25-148,238.20833333333334
447,대학로(한국방송통신대학교),A-07,4,201.0,139.0,101.0,93.0,118.0,223.0,427.0,658.0,734.0,669.0,689.0,692.0,665.0,691.0,699.0,690.0,641.0,557.0,455.0,433.0,444.0,467.0,398.0,291.0,37.578188,127.002053,서울시 종로구 연건동 72-3,465.625
459,도봉로(도봉산역),B-01,4,302.0,224.0,166.0,184.0,331.0,576.0,891.0,1560.0,1828.0,1563.0,1374.0,1242.0,1342.0,1339.0,1388.0,1489.0,1705.0,2032.0,2158.0,1651.0,1078.0,891.0,761.0,498.0,37.691792,127.045087,서울시 도봉구 도봉동 378-1,1107.2083333333333
471,도봉로(쌍문역),D-11,4,442.0,314.0,243.0,221.0,283.0,506.0,818.0,1085.0,1242.0,1183.0,1191.0,1139.0,1117.0,1143.0,1157.0,1168.0,1223.0,1215.0,1227.0,1063.0,979.0,882.0,846.0,623.0,37.645707,127.033171,서울시 도봉구 창동 650-46,887.9166666666666
483,동부간선도로,F-05,4,1668.0,1091.0,796.0,716.0,1040.0,2512.0,3337.0,3197.0,3210.0,3267.0,3270.0,3397.0,3534.0,3561.0,3584.0,3731.0,3643.0,3288.0,2980.0,3005.0,3379.0,3604.0,3525.0,2599.0,37.568685,127.076023,서울시 동대문구 장안동 19-7,2830.5833333333335
495,동부간선도로(월계1교),D-12,4,1394.0,959.0,716.0,680.0,1088.0,2511.0,2864.0,2771.0,2941.0,2991.0,2881.0,2862.0,2951.0,3030.0,2968.0,3016.0,3070.0,3010.0,2752.0,2852.0,2906.0,2945.0,2832.0,2141.0,37.631579,127.063432,서울시 노원구 월계동 247-17,2463.7916666666665
507,동소문로(길음교사거리),D-09,4,685.0,445.0,326.0,280.0,407.0,637.0,1028.0,1283.0,1394.0,1444.0,1485.0,1500.0,1476.0,1504.0,1503.0,1521.0,1484.0,1447.0,1354.0,1287.0,1288.0,1326.0,1268.0,940.0,37.599755,127.021693,서울시 성북구 돈암동 32-31,1138.0
519,동일로(군자교),D-07,4,714.0,509.0,369.0,302.0,357.0,707.0,1170.0,1250.0,1398.0,1514.0,1665.0,1718.0,1703.0,1733.0,1776.0,1860.0,1912.0,1993.0,1924.0,1728.0,1553.0,1509.0,1362.0,1009.0,37.553809,127.070504,서울시 성동구 송정동 83,1322.2916666666667
531,동일로(노원역),D-13,4,283.0,169.0,123.0,103.0,136.0,243.0,535.0,949.0,1067.0,1073.0,1127.0,1134.0,1069.0,1123.0,1165.0,1183.0,1191.0,1186.0,1173.0,974.0,790.0,729.0,640.0,424.0,37.652409,127.061032,서울시 노원구 상계동 729,774.5416666666666
543,동일로(의정부IC),B-02,4,424.0,296.0,211.0,205.0,335.0,875.0,1758.0,2728.0,3006.0,2552.0,2448.0,2338.0,2315.0,2414.0,2471.0,2554.0,2789.0,2960.0,2803.0,2356.0,1832.0,1528.0,1273.0,728.0,37.688571,127.055376,서울시 노원구 상계동 1311-3,1799.9583333333333
555,동작대교,C-10,4,326.0,194.0,131.0,109.0,139.0,401.0,985.0,1509.0,1864.0,1681.0,1616.0,1618.0,1557.0,1618.0,1702.0,1821.0,1982.0,2032.0,1948.0,1328.0,1133.0,1093.0,991.0,557.0,37.509936,126.981814,서울시 용산구 이촌동 385,1180.625
567,동작대로(총신대입구역),D-31,4,801.0,491.0,349.0,289.0,417.0,1001.0,1944.0,2298.0,2338.0,2381.0,2308.0,2173.0,2182.0,2176.0,2194.0,2188.0,2265.0,2141.0,1997.0,1904.0,1981.0,1988.0,1900.0,1258.0,37.494352,126.982914,서울시 서초구 방배동 1255,1706.8333333333333
579,동호대교,C-14,4,563.0,426.0,323.0,270.0,318.0,495.0,1038.0,1938.0,2145.0,2163.0,2180.0,2039.0,1934.0,2001.0,1992.0,2036.0,2046.0,2127.0,2065.0,1592.0,1515.0,1430.0,1254.0,815.0,37.538207,127.019882,서울시 성동구 옥수동 86,1446.0416666666667
591,동호로(금호터널),D-03,4,508.0,389.0,309.0,261.0,311.0,461.0,937.0,1648.0,1739.0,1766.0,1791.0,1789.0,1716.0,1809.0,1806.0,1786.0,1763.0,1754.0,1667.0,1429.0,1332.0,1195.0,1084.0,706.0,37.551919,127.012977,서울시 중구 신당동 349-202,1248.1666666666667
603,동호로(장충체육관),A-10,4,327.0,242.0,180.0,157.0,186.0,303.0,672.0,1327.0,1499.0,1467.0,1525.0,1541.0,1463.0,1572.0,1602.0,1603.0,1590.0,1588.0,1489.0,1234.0,1085.0,896.0,749.0,465.0,37.558563,127.007101,서울시 중구 장충동2가 200-99,1031.75
615,뚝섬로(용비교),D-06,4,457.0,292.0,204.0,181.0,221.0,470.0,1106.0,1740.0,1945.0,1999.0,1993.0,1918.0,1828.0,1883.0,1916.0,1949.0,1941.0,1954.0,1853.0,1578.0,1344.0,1325.0,1303.0,746.0,37.542006,127.020674,서울시 성동구 옥수동 산 1-11 ,1339.4166666666667
627,마포대교,C-07,4,671.0,448.0,319.0,246.0,346.0,755.0,1712.0,2897.0,3140.0,2862.0,2764.0,2885.0,2641.0,2870.0,2858.0,2873.0,2958.0,3108.0,2948.0,2411.0,2257.0,2142.0,1826.0,1064.0,37.533628,126.936512,서울시 영등포구 여의도동 85-2,2041.7083333333333
639,망우로(망우리공원),B-04,4,187.0,124.0,88.0,87.0,127.0,293.0,606.0,984.0,1076.0,919.0,836.0,820.0,796.0,827.0,844.0,876.0,975.0,1100.0,1163.0,889.0,637.0,531.0,474.0,290.0,37.601476,127.115674,경기도 구리시 교문동 346-3,647.875
651,문성로(난곡터널),D-32,4,145.0,107.0,80.0,70.0,89.0,159.0,250.0,396.0,439.0,411.0,402.0,395.0,384.0,400.0,410.0,428.0,460.0,476.0,474.0,406.0,346.0,308.0,287.0,204.0,37.479046,126.924252,서울시 관악구 신림동 438-44,313.5833333333333
663,반포대교,C-11,4,704.0,451.0,309.0,238.0,285.0,703.0,1737.0,2526.0,2683.0,2666.0,2572.0,2614.0,2532.0,2564.0,2618.0,2601.0,2565.0,2585.0,2574.0,2187.0,2142.0,2117.0,1924.0,1137.0,37.514431,126.996663,서울시 서초구 반포동 647,1876.4166666666667
675,반포대로(서초역),D-37,4,470.0,285.0,206.0,173.0,190.0,503.0,1503.0,2238.0,2192.0,2415.0,2480.0,2433.0,2337.0,2449.0,2439.0,2351.0,2422.0,2286.0,2294.0,2045.0,1843.0,1793.0,1564.0,846.0,37.49624,127.005554,서울시 서초구 서초동 산 183-3 ,1656.5416666666667
687,반포대로(우면산터널),B-17,4,310.0,183.0,124.0,101.0,139.0,398.0,1272.0,1913.0,2070.0,2031.0,2031.0,2028.0,1927.0,1970.0,1975.0,1999.0,2111.0,2238.0,2208.0,1833.0,1458.0,1315.0,1089.0,581.0,37.483905,127.011416,서울시 서초구 서초동 1460-6,1387.6666666666667
699,밤고개로(세곡동사거리),B-13,4,125.0,81.0,59.0,56.0,89.0,238.0,630.0,1481.0,1717.0,1385.0,1244.0,1143.0,1080.0,1109.0,1118.0,1175.0,1386.0,1748.0,1749.0,1118.0,717.0,573.0,468.0,256.0,37.462416,127.107883,서울시 강남구 세곡동 130-6,864.375
711,백제고분로(종합운동장),D-44,4,376.0,270.0,196.0,148.0,155.0,309.0,523.0,921.0,1055.0,1047.0,1054.0,1066.0,1069.0,1106.0,1087.0,1088.0,1077.0,1111.0,1081.0,927.0,939.0,970.0,861.0,537.0,37.510639,127.078559,서울시 송파구 잠실동 124,790.5416666666666
723,북부간선도로(신내IC),B-07,4,864.0,580.0,470.0,530.0,818.0,2049.0,2842.0,2967.0,2960.0,3023.0,3072.0,3061.0,3149.0,3276.0,3314.0,3353.0,3438.0,3235.0,3064.0,3011.0,3003.0,2786.0,2515.0,1456.0,37.613824,127.1087,서울시 중랑구 신내동 122-3,2451.5
735,북부간선로,F-04,4,1057.0,701.0,538.0,528.0,892.0,2190.0,2746.0,2765.0,2748.0,2732.0,2708.0,2689.0,2744.0,2721.0,2715.0,2703.0,2732.0,2731.0,2625.0,2588.0,2638.0,2601.0,2510.0,1733.0,37.608556,127.052577,서울시 성북구 장위동 65-175 ,2222.2916666666665
747,분당수서로,F-07,4,1105.0,744.0,546.0,497.0,720.0,2034.0,3418.0,3555.0,3614.0,3670.0,3659.0,3632.0,3598.0,3565.0,3532.0,3570.0,3653.0,3654.0,3529.0,3322.0,3285.0,3233.0,2960.0,1866.0,37.497648,127.087195,서울시 강남구 일원동 467-1,2790.0416666666665
759,분당수서로(성남시계),B-14,4,781.0,503.0,368.0,350.0,541.0,1577.0,2794.0,2750.0,2593.0,2648.0,2665.0,2669.0,2674.0,2646.0,2658.0,2706.0,2742.0,2690.0,2607.0,2443.0,2527.0,2484.0,2191.0,1314.0,37.471129,127.123078,서울시 송파구 장지동 698-5,2080.0416666666665
771,사직로(사직터널),A-02,4,555.0,361.0,254.0,220.0,284.0,548.0,1166.0,1838.0,2021.0,1905.0,1836.0,1857.0,1795.0,1837.0,1876.0,1880.0,1935.0,1940.0,1894.0,1610.0,1429.0,1395.0,1196.0,823.0,37.572298,126.962853,서울시 종로구 행촌동 1-186,1352.2916666666667
783,사평대로(고속터미널역),D-36,4,710.0,480.0,331.0,250.0,317.0,704.0,1532.0,2132.0,2127.0,2208.0,2191.0,2207.0,2196.0,2314.0,2307.0,2326.0,2330.0,2255.0,2312.0,2169.0,1961.0,2013.0,1894.0,1078.0,37.503742,127.007779,서울시 서초구 반포동 60-2,1681.0
795,새문안로(서울역사박물관),A-14,4,385.0,261.0,192.0,155.0,192.0,380.0,729.0,1089.0,1230.0,1168.0,1148.0,1217.0,1220.0,1320.0,1300.0,1296.0,1294.0,1331.0,1312.0,1099.0,980.0,921.0,775.0,528.0,37.569776,126.971354,서울시 종로구 신문로2가 1-2,896.75
807,서강대교,C-06,4,215.0,140.0,99.0,86.0,121.0,241.0,584.0,1190.0,1407.0,1250.0,1171.0,1201.0,1119.0,1246.0,1270.0,1308.0,1436.0,1614.0,1640.0,1081.0,778.0,742.0,658.0,351.0,37.537537,126.925341,서울시 영등포구 여의도동 83-1,872.8333333333334
819,서부간선도로,F-09,4,1661.0,1056.0,766.0,704.0,1179.0,2335.0,2588.0,2203.0,1929.0,2058.0,2096.0,2155.0,2245.0,2196.0,2172.0,2229.0,2132.0,1954.0,1950.0,2158.0,2431.0,2642.0,2631.0,2353.0,37.520965,126.881826,서울시 영등포구 문래동6가 52,1992.625
831,서빙고로(한남역),D-04,4,710.0,475.0,334.0,280.0,330.0,600.0,1233.0,2019.0,2324.0,2338.0,2370.0,2398.0,2382.0,2413.0,2493.0,2580.0,2716.0,2710.0,2510.0,2101.0,1921.0,1945.0,1900.0,1127.0,37.527197,127.004697,서울시 용산구 한남동 542-10,1758.7083333333333
843,서소문로(시청역),A-16,4,358.0,242.0,176.0,149.0,188.0,358.0,695.0,956.0,1001.0,1038.0,1052.0,1099.0,1061.0,1137.0,1129.0,1179.0,1215.0,1309.0,1213.0,1062.0,885.0,857.0,763.0,536.0,37.562819,126.972716,서울시 중구 서소문동 72-2,819.0833333333334
855,서오릉로(고양시계),B-34,4,284.0,189.0,147.0,138.0,191.0,389.0,808.0,1206.0,1303.0,1207.0,1169.0,1169.0,1189.0,1215.0,1229.0,1239.0,1310.0,1405.0,1405.0,1193.0,892.0,788.0,676.0,387.0,37.617883,126.90626,서울시 은평구 구산동 304-15,880.3333333333334
867,서하남로(서하남IC),B-08,4,476.0,367.0,308.0,294.0,428.0,1234.0,2330.0,2995.0,2962.0,2993.0,2983.0,2871.0,2861.0,2950.0,2949.0,2979.0,3093.0,3046.0,2888.0,2530.0,2065.0,1778.0,1421.0,810.0,37.516777,127.146728,경기도 하남시 감북동 442-15,2067.125
879,성산대교,C-04,4,1477.0,913.0,647.0,572.0,963.0,2425.0,3785.0,3872.0,3806.0,3715.0,3684.0,3685.0,3809.0,3758.0,3780.0,3950.0,4094.0,4149.0,4045.0,3494.0,3428.0,3502.0,3383.0,2363.0,37.55268,126.891564,서울시 마포구 망원동 306-53,3054.125
891,성산로(금화터널),A-01,4,451.0,292.0,208.0,176.0,226.0,467.0,1038.0,1684.0,1771.0,1676.0,1648.0,1656.0,1629.0,1680.0,1707.0,1741.0,1805.0,1892.0,1863.0,1561.0,1302.0,1240.0,1074.0,731.0,37.568588,126.948436,서울시 서대문구 신촌동 1-142,1229.9166666666667
903,성산로(연희IC),D-16,4,594.0,376.0,264.0,235.0,338.0,749.0,1376.0,1618.0,1595.0,1915.0,1997.0,2043.0,2035.0,2062.0,2073.0,2119.0,2101.0,2150.0,2137.0,1868.0,1579.0,1539.0,1343.0,935.0,37.563506,126.9301,서울시 서대문구 연희동 341-41,1460.0416666666667
915,성수대교,C-15,4,1357.0,880.0,666.0,586.0,807.0,1577.0,2614.0,3063.0,3458.0,3326.0,3301.0,3236.0,3289.0,3442.0,3372.0,3388.0,3533.0,3623.0,3393.0,2841.0,2816.0,3005.0,2871.0,2090.0,37.536768,127.034972,서울시 성동구 옥수동 484,2605.5833333333335
927,세종대로(서울역),A-13,4,,,,,,,,,,,,,,,,,,,,,,,,,37.558061,126.973439,서울시 중구 남대문로5가 84-15,
939,세종대로(시청역2),A-17,4,,,,,,,,,,,,,,,,,,,,,,,,,37.567496,126.977208,서울시 중구 태평로1가 61-29,
951,소월로(회현역),A-23,4,29.0,24.0,15.0,11.0,13.0,30.0,82.0,327.0,399.0,354.0,295.0,318.0,298.0,335.0,351.0,350.0,366.0,404.0,401.0,279.0,188.0,119.0,85.0,53.0,37.557044,126.976362,서울시 중구 남창동 217-1,213.58333333333334
963,소파로(숭의여자대학교),A-24,4,40.0,30.0,24.0,17.0,18.0,22.0,57.0,175.0,379.0,261.0,259.0,299.0,340.0,382.0,373.0,389.0,354.0,350.0,364.0,262.0,201.0,155.0,106.0,69.0,37.554896,126.983521,서울시 중구 회현동1가 산1-16,205.25
975,송파대로(복정역),B-12,4,435.0,307.0,216.0,190.0,283.0,623.0,1175.0,1760.0,1738.0,1743.0,1672.0,1551.0,1509.0,1542.0,1580.0,1611.0,1740.0,1831.0,1777.0,1357.0,1143.0,1119.0,969.0,637.0,37.468797,127.126419,서울시 송파구 장지동 697-14,1187.8333333333333
987,송파대로(송파역),D-45,4,664.0,496.0,353.0,294.0,359.0,616.0,1239.0,1918.0,2119.0,2106.0,2075.0,2030.0,1942.0,1982.0,1974.0,2058.0,2099.0,2132.0,2131.0,1871.0,1658.0,1551.0,1437.0,977.0,37.500537,127.111445,서울시 송파구 송파동 2-15 ,1503.375
999,수색로(고양시계),B-35,4,,,,,,,,,,,,,,,,,,,,,,,,,37.587472,126.886414,서울시 은평구 수색동 281-12,
1011,시흥대로(구로디지털단지역),D-26,4,496.0,330.0,248.0,215.0,388.0,931.0,1309.0,1898.0,2037.0,1976.0,2015.0,1916.0,1904.0,1884.0,1954.0,1947.0,2097.0,2224.0,2184.0,1878.0,1608.0,1417.0,1168.0,771.0,37.486787,126.904415,서울시 영등포구 대림동 993-57,1449.7916666666667
1023,시흥대로(석수역),B-18,4,549.0,301.0,207.0,193.0,367.0,1048.0,1776.0,2148.0,2090.0,2172.0,2232.0,2142.0,2113.0,2170.0,2175.0,2250.0,2352.0,2499.0,2535.0,2225.0,1836.0,1579.0,1286.0,813.0,37.437013,126.902811,서울시 금천구 시흥동 1001-34,1627.4166666666667
1035,시흥대로(시흥IC),D-24,4,401.0,261.0,191.0,168.0,421.0,1048.0,1519.0,2359.0,2412.0,2309.0,2250.0,2133.0,1999.0,2065.0,2119.0,2118.0,2212.0,2306.0,2231.0,1980.0,1682.0,1448.0,1041.0,703.0,37.477189,126.898532,서울시 금천구 독산동 142-7,1557.3333333333333
1047,신정로(작동터널),B-30,4,232.0,147.0,102.0,99.0,146.0,407.0,921.0,1342.0,1360.0,1230.0,1207.0,1199.0,1152.0,1208.0,1212.0,1236.0,1332.0,1501.0,1499.0,1241.0,922.0,779.0,623.0,392.0,37.506104,126.824602,서울시 구로구 궁동 산 1-94,895.375
1059,아차산로(워커힐),B-03,4,135.0,91.0,70.0,57.0,67.0,183.0,499.0,995.0,1002.0,888.0,825.0,821.0,763.0,779.0,789.0,786.0,827.0,950.0,1054.0,784.0,587.0,520.0,362.0,225.0,37.550897,127.108955,서울시 광진구 광장동 145-2,585.7916666666666
1071,양녕로(상도터널),D-30,4,754.0,471.0,340.0,280.0,374.0,817.0,1504.0,1863.0,1778.0,1989.0,1896.0,1775.0,1776.0,1810.0,1780.0,1811.0,1853.0,1787.0,1701.0,1576.0,1586.0,1643.0,1561.0,1100.0,37.511204,126.953469,서울시 동작구 본동 136-4,1409.375
1083,양재대로(양재IC),B-16,4,862.0,535.0,390.0,348.0,625.0,2112.0,4363.0,4760.0,4508.0,4453.0,4320.0,3854.0,3998.0,4206.0,4156.0,4160.0,4371.0,4383.0,4007.0,3177.0,2908.0,2768.0,2345.0,1496.0,37.460089,127.030175,경기도 과천시 주암동 89-18,3046.0416666666665
1095,양화대교,C-05,4,1352.0,920.0,656.0,572.0,709.0,1493.0,2568.0,3471.0,3867.0,3710.0,3648.0,3543.0,3376.0,3375.0,3423.0,3474.0,3592.0,3635.0,3448.0,3153.0,2901.0,2908.0,2839.0,1978.0,37.542913,126.903766,서울시 마포구 합정동 351-4,2692.125
1107,언주로(매봉터널),D-38,4,438.0,288.0,212.0,164.0,199.0,382.0,905.0,1464.0,1659.0,1748.0,1728.0,1652.0,1659.0,1682.0,1711.0,1682.0,1703.0,1672.0,1715.0,1497.0,1395.0,1357.0,1184.0,685.0,37.492009,127.047969,서울시 강남구 도곡동 산 6-13,1199.2083333333333
1119,여의대방로(여의교),D-29,4,704.0,442.0,310.0,254.0,363.0,814.0,1502.0,2269.0,2519.0,2439.0,2285.0,2224.0,2099.0,2243.0,2280.0,2312.0,2387.0,2370.0,2255.0,1951.0,1789.0,1750.0,1566.0,1069.0,37.516852,126.928374,서울시 영등포구 여의도동 5-7,1674.8333333333333
1131,연희로(연희IC),D-17,4,340.0,220.0,162.0,121.0,142.0,258.0,499.0,764.0,806.0,879.0,928.0,943.0,976.0,958.0,998.0,1041.0,1068.0,1147.0,1149.0,1026.0,870.0,835.0,764.0,531.0,37.566264,126.930537,서울시 서대문구 연희동 187-58,726.0416666666666
1143,영동대교,C-16,4,1033.0,720.0,526.0,418.0,497.0,1049.0,2161.0,2773.0,3137.0,3210.0,3316.0,3390.0,3312.0,3398.0,3460.0,3487.0,3639.0,3676.0,3470.0,2820.0,2728.0,2777.0,2460.0,1542.0,37.530295,127.057339,서울시 광진구 자양동 825-1,2458.2916666666665
1155,영등포로(오목교),D-25,4,418.0,274.0,216.0,177.0,216.0,445.0,876.0,1362.0,1466.0,1560.0,1574.0,1560.0,1508.0,1578.0,1624.0,1622.0,1653.0,1609.0,1563.0,1322.0,1257.0,1201.0,1052.0,631.0,37.523175,126.883725,서울시 영등포구 양평동2가 20-1,1115.1666666666667
1167,오리로(광명시계),B-20,4,186.0,123.0,81.0,81.0,131.0,279.0,521.0,721.0,776.0,750.0,735.0,702.0,683.0,710.0,726.0,754.0,789.0,788.0,771.0,664.0,548.0,481.0,402.0,251.0,37.482607,126.843109,서울시 구로구 천왕동 10-1,527.2083333333334
1179,오정로(부천시계),B-26,4,100.0,70.0,63.0,64.0,175.0,388.0,562.0,785.0,726.0,620.0,605.0,620.0,608.0,614.0,631.0,650.0,757.0,859.0,821.0,625.0,427.0,376.0,335.0,193.0,37.542779,126.809411,서울시 강서구 공항동 406-13,486.4166666666667
1191,올림픽대교,C-19,4,267.0,173.0,133.0,118.0,173.0,550.0,1289.0,2034.0,2195.0,2021.0,2021.0,1905.0,1748.0,1899.0,1983.0,2067.0,2201.0,2441.0,2313.0,1857.0,1346.0,1140.0,936.0,489.0,37.533789,127.10412,서울시 송파구 신천동 253,1387.4583333333333
1203,올림픽대로,F-01,4,2397.0,1610.0,1225.0,1169.0,1701.0,3880.0,5908.0,6499.0,6449.0,6361.0,6323.0,6334.0,6368.0,6450.0,6408.0,6348.0,6232.0,5964.0,5594.0,5271.0,5626.0,5894.0,5746.0,3934.0,37.506002,126.97375,서울시 동작구 동작동 322-3,4987.125
1215,올림픽대로(강일IC),B-10,4,1374.0,908.0,692.0,676.0,1098.0,2826.0,4978.0,5580.0,5833.0,5746.0,5628.0,5239.0,5294.0,5603.0,5712.0,5741.0,5938.0,5890.0,5670.0,5486.0,5179.0,4692.0,4034.0,2385.0,37.569891,127.157292,서울시 강동구 고덕동 365-3,4258.416666666667
1227,올림픽대로(개화IC),B-32,4,1422.0,992.0,864.0,903.0,1321.0,3000.0,4209.0,3942.0,4111.0,4068.0,4344.0,4445.0,4565.0,4710.0,4760.0,4814.0,5020.0,5050.0,4904.0,4745.0,4392.0,3926.0,3504.0,2379.0,37.587814,126.812795,서울 강서구 개화동 280-2,3599.5833333333335
1239,원효대교,C-08,4,307.0,214.0,143.0,109.0,142.0,392.0,858.0,1486.0,1710.0,1507.0,1480.0,1493.0,1387.0,1503.0,1526.0,1580.0,1635.0,1642.0,1564.0,1154.0,942.0,882.0,727.0,458.0,37.526745,126.945137,서울시 영등포구 여의도동 87-2,1035.0416666666667
1251,율곡로(안국역),A-05,4,490.0,324.0,234.0,209.0,279.0,454.0,864.0,1228.0,1363.0,1392.0,1467.0,1506.0,1507.0,1550.0,1558.0,1542.0,1472.0,1472.0,1288.0,1219.0,1125.0,1140.0,1022.0,717.0,37.576,126.984342,서울시 종로구 경운동 90-4,1059.25
1263,을지로(을지로3가역),A-18,4,283.0,226.0,170.0,146.0,173.0,223.0,418.0,745.0,816.0,804.0,858.0,875.0,868.0,899.0,918.0,938.0,882.0,821.0,744.0,719.0,644.0,539.0,467.0,359.0,37.566114,126.989326,서울시 중구 을지로2가 149-10,605.625
1275,자하문로(자하문터널),A-03,4,172.0,106.0,70.0,59.0,81.0,193.0,585.0,873.0,834.0,875.0,830.0,738.0,699.0,729.0,770.0,788.0,874.0,899.0,852.0,717.0,588.0,560.0,491.0,306.0,37.588831,126.968548,서울시 종로구 청운동 24-6,570.375
1287,잠수교,C-12,4,162.0,98.0,69.0,52.0,50.0,153.0,387.0,603.0,601.0,626.0,659.0,644.0,619.0,656.0,678.0,676.0,728.0,752.0,655.0,554.0,492.0,511.0,491.0,280.0,37.50826,126.999744,서울시 서초구 잠원동 114,466.5
1299,잠실대교,C-18,4,795.0,525.0,373.0,301.0,382.0,790.0,1661.0,2465.0,2613.0,2541.0,2626.0,2646.0,2501.0,2494.0,2545.0,2666.0,2725.0,2828.0,2737.0,2539.0,2219.0,2151.0,1957.0,1261.0,37.523821,127.092036,서울시 송파구 신천동 245,1930.875
1311,장충단로(장충단공원),A-11,4,297.0,214.0,162.0,136.0,193.0,308.0,609.0,1108.0,1303.0,1332.0,1295.0,1368.0,1377.0,1422.0,1449.0,1447.0,1449.0,1432.0,1366.0,1096.0,899.0,796.0,698.0,456.0,37.556889,127.004655,서울시 중구 장충동2가 산6-6,925.5
1323,종로(동묘앞역),A-08,4,590.0,438.0,349.0,306.0,393.0,599.0,929.0,1140.0,1252.0,1334.0,1362.0,1328.0,1342.0,1347.0,1323.0,1329.0,1349.0,1321.0,1283.0,1227.0,1155.0,1081.0,952.0,771.0,37.573262,127.017112,서울시 종로구 숭인동 273,1020.8333333333334
1335,종로(종로3가역),A-15,4,419.0,294.0,217.0,174.0,215.0,381.0,699.0,1057.0,1109.0,1131.0,1136.0,1141.0,1143.0,1169.0,1187.0,1193.0,1164.0,1147.0,1103.0,1015.0,882.0,799.0,663.0,533.0,37.570216,126.990832,서울시 종로구 종로3가 137-3,832.125
1347,증산로(디지털미디어시티역),D-14,4,612.0,416.0,313.0,312.0,532.0,1154.0,1661.0,1742.0,1804.0,1923.0,1805.0,1690.0,1709.0,1758.0,1740.0,1786.0,1860.0,1726.0,1528.0,1388.0,1390.0,1374.0,1303.0,923.0,37.579684,126.905124,서울시 은평구 증산동 199-12,1352.0416666666667
1359,진흥로(구기터널),D-01,4,236.0,149.0,109.0,93.0,129.0,312.0,886.0,1179.0,1235.0,1244.0,1207.0,1152.0,1074.0,1096.0,1135.0,1183.0,1316.0,1440.0,1361.0,1144.0,905.0,823.0,720.0,420.0,37.608686,126.955198,서울시 종로구 구기동 244-7,856.1666666666666
1371,창경궁로(서울여자대학교),A-06,4,382.0,240.0,171.0,154.0,243.0,414.0,805.0,1094.0,1139.0,1056.0,1004.0,1015.0,1000.0,1003.0,1008.0,1009.0,1001.0,967.0,875.0,807.0,831.0,871.0,785.0,569.0,37.582526,126.998011,서울시 종로구 명륜4가 197-5,768.4583333333334
1383,천호대교,C-20,4,556.0,360.0,272.0,231.0,306.0,676.0,1381.0,1941.0,2047.0,2057.0,2089.0,2042.0,1917.0,1887.0,1941.0,2010.0,2050.0,2089.0,2011.0,1813.0,1617.0,1456.0,1368.0,840.0,37.542673,127.112883,서울시 송파구 풍납동 383,1456.5416666666667
1395,천호대로(군자교),D-05,4,626.0,445.0,345.0,292.0,368.0,706.0,1293.0,1980.0,2341.0,2319.0,2279.0,2173.0,2086.0,2193.0,2278.0,2297.0,2358.0,2410.0,2332.0,2010.0,1697.0,1560.0,1368.0,947.0,37.560716,127.068571,서울시 성동구 용답동 224-4,1612.625
1407,천호대로(상일IC),B-09,4,,,,,,,,,,,,,,,,,,,,,,,,,37.547459,127.175222,서울시 강동구 상일동 12-2,
1419,철산교(광명시계),B-23,4,342.0,220.0,162.0,134.0,242.0,594.0,778.0,1023.0,1028.0,1048.0,967.0,937.0,933.0,926.0,941.0,938.0,932.0,942.0,894.0,867.0,895.0,899.0,772.0,515.0,37.474933,126.878154,서울시 금천구 가산동 614-72,747.0416666666666
1431,청담대교,C-17,4,939.0,638.0,490.0,464.0,694.0,1858.0,2978.0,3142.0,3268.0,3338.0,3379.0,3357.0,3252.0,3279.0,3281.0,3422.0,3563.0,3470.0,3145.0,3098.0,3216.0,3099.0,2844.0,1609.0,37.525513,127.064067,서울시 강남구 청담동 345,2575.9583333333335
1443,칠패로(숭례문),A-19,4,140.0,92.0,68.0,52.0,58.0,105.0,188.0,308.0,411.0,415.0,417.0,448.0,424.0,468.0,473.0,477.0,495.0,492.0,481.0,410.0,346.0,315.0,284.0,212.0,37.559593,126.972518,서울시 중구 봉래동1가 47-2,315.7916666666667
1455,테헤란로(선릉역),D-42,4,672.0,515.0,400.0,305.0,268.0,356.0,583.0,1079.0,1234.0,1347.0,1438.0,1565.0,1544.0,1651.0,1596.0,1593.0,1574.0,1374.0,1072.0,1218.0,1269.0,1364.0,1255.0,822.0,37.505483,127.052134,서울시 강남구 삼성동 172-66,1087.25
1467,통일로(고양시계),B-33,4,341.0,200.0,135.0,125.0,217.0,488.0,957.0,1347.0,1448.0,1431.0,1438.0,1413.0,1421.0,1445.0,1463.0,1480.0,1478.0,1458.0,1418.0,1258.0,1071.0,997.0,851.0,560.0,37.644685,126.91127,경기 고양시 덕양구 동산동 2-13,1018.3333333333334
1479,통일로(산골고개정류장),D-15,4,807.0,511.0,370.0,316.0,489.0,1032.0,1486.0,1439.0,1561.0,1668.0,1714.0,1655.0,1691.0,1725.0,1718.0,1718.0,1765.0,1754.0,1786.0,1700.0,1714.0,1710.0,1611.0,1224.0,37.594931,126.940246,서울시 서대문구 홍은동 137-8,1381.8333333333333
1491,퇴계로(신당역),A-09,4,516.0,382.0,323.0,281.0,326.0,477.0,709.0,965.0,976.0,1044.0,1104.0,1140.0,1124.0,1126.0,1128.0,1114.0,1099.0,1072.0,1023.0,1003.0,976.0,891.0,776.0,661.0,37.565712,127.020912,서울시 중구 황학동 710,843.1666666666666
1503,퇴계로(회현역),A-12,4,307.0,237.0,175.0,148.0,181.0,390.0,715.0,869.0,998.0,1011.0,1008.0,1009.0,957.0,984.0,969.0,952.0,919.0,895.0,840.0,727.0,646.0,676.0,621.0,420.0,37.557432,126.976486,서울시 중구 남창동 236-2,693.9166666666666
1515,평창문화로(북악터널),D-02,4,239.0,148.0,104.0,90.0,133.0,321.0,822.0,1098.0,1154.0,1182.0,1138.0,1138.0,1120.0,1114.0,1177.0,1250.0,1368.0,1423.0,1346.0,1048.0,878.0,815.0,708.0,404.0,37.611547,126.979308,서울시 종로구 평창동 2-15,842.4166666666666
1527,한강대교,C-09,4,899.0,550.0,390.0,325.0,419.0,926.0,1734.0,2341.0,2484.0,2459.0,2419.0,2344.0,2283.0,2343.0,2384.0,2520.0,2668.0,2784.0,2591.0,2382.0,2056.0,2097.0,1938.0,1324.0,37.51816,126.959472,서울시 용산구 이촌동 302-211,1860.8333333333333
1539,한남대교,C-13,4,1613.0,1051.0,770.0,650.0,837.0,2021.0,3865.0,4726.0,5232.0,5263.0,5078.0,5024.0,4866.0,5079.0,5161.0,5105.0,5048.0,5047.0,5084.0,4318.0,4061.0,4483.0,4125.0,2543.0,37.526946,127.01319,서울시 강남구 신사동 490,3793.75
1551,행주대교,C-01,4,427.0,283.0,228.0,243.0,395.0,970.0,2272.0,2898.0,2954.0,2982.0,3114.0,3003.0,2861.0,2914.0,3087.0,3273.0,3708.0,4058.0,3889.0,2951.0,1992.0,1654.0,1397.0,742.0,37.598121,126.809931,서울시 강서구 개화동 652,2178.9583333333335
1563,헌릉로(세곡동사거리),D-40,4,252.0,154.0,114.0,93.0,160.0,481.0,1150.0,1798.0,1906.0,1959.0,1940.0,1831.0,1697.0,1728.0,1827.0,1939.0,2154.0,2277.0,2097.0,1579.0,1211.0,1046.0,904.0,464.0,37.465092,127.105635,서울시 강남구 세곡동 산 30-4,1281.7083333333333
1575,화곡로(화곡로입구),B-27,4,274.0,182.0,143.0,138.0,213.0,558.0,888.0,1010.0,1040.0,941.0,977.0,977.0,975.0,976.0,987.0,1000.0,1031.0,1004.0,953.0,840.0,752.0,697.0,647.0,424.0,37.539227,126.823123,서울시 양천구 신월동 37-1,734.4583333333334
1587,화랑로(상월곡역),D-08,4,729.0,506.0,408.0,387.0,567.0,1113.0,1392.0,1582.0,1796.0,1770.0,1755.0,1758.0,1766.0,1761.0,1757.0,1753.0,1713.0,1764.0,1788.0,1745.0,1662.0,1624.0,1535.0,1107.0,37.603932,127.044044,서울시 성북구 하월곡동 37-7,1405.75
1599,화랑로(조선왕릉),B-06,4,290.0,204.0,149.0,138.0,201.0,450.0,971.0,1498.0,1531.0,1439.0,1337.0,1290.0,1315.0,1315.0,1363.0,1398.0,1474.0,1517.0,1462.0,1263.0,997.0,891.0,776.0,451.0,37.630725,127.098984,서울시 노원구 공릉동산223-19,988.3333333333334
1611,화랑로(화랑대역),D-10,4,581.0,385.0,292.0,289.0,419.0,958.0,1482.0,1618.0,1645.0,1780.0,1901.0,1831.0,1825.0,1827.0,1861.0,1867.0,1909.0,1857.0,1824.0,1772.0,1627.0,1510.0,1392.0,899.0,37.619936,127.08295,"서울시, 노원구 공릉동 280-2",1389.625
